{"type": "FeatureCollection", "features": [{"type":"Feature","geometry":{"type":"Point","coordinates":[120.987352,14.612116]},"properties":{"name":"\"Heaven's Touch Cuisine : HT Food Drive - Community Pantry / Kitchen\""}},{"type":"Feature","geometry":{"type":"Point","coordinates":[121.252385,14.151883]},"properties":{"name":"\"Tuntungin-Putho Community Pantry\""}},{"type":"Feature","geometry":{"type":"Point","coordinates":[121.133451,16.635287]},"properties":{"name":"\"\""}},{"type":"Feature","geometry":{"type":"Point","coordinates":[120.842743,15.66866]},"properties":{"name":"\"\""}},{"type":"Feature","geometry":{"type":"Point","coordinates":[121.00182,14.563592]},"properties":{"name":"\"Palanan #CommunityPantryPH\""}},{"type":"Feature","geometry":{"type":"Point","coordinates":[121.004951,14.55851]},"properties":{"name":"\"DAYAP MAKATI COMMUNITY PANTRY\""}},{"type":"Feature","geometry":{"type":"Point","coordinates":[121.00201,14.563769]},"properties":{"name":"\"Palanan #CommunityPantryPH\""}},{"type":"Feature","geometry":{"type":"Point","coordinates":[120.930583,13.935081]},"properties":{"name":"\"Icare Rolling Pantry\""}},{"type":"Feature","geometry":{"type":"Point","coordinates":[121.218681,15.37226]},"properties":{"name":"\"jkhjhj\""}},{"type":"Feature","geometry":{"type":"Point","coordinates":[120.588275,16.407994]},"properties":{"name":"\"Isang Buklod sa Pagbangon Community Pantry\""}},{"type":"Feature","geometry":{"type":"Point","coordinates":[121.098148,14.603238]},"properties":{"name":"\"Magsaysay Community Pantry\""}},{"type":"Feature","geometry":{"type":"Point","coordinates":[122.568998,10.707614]},"properties":{"name":" CommunityPantry Panay"}},{"type":"Feature","geometry":{"type":"Point","coordinates":[122.431603,10.816983]},"properties":{"name":"Alimodian Community Pantry"}},{"type":"Feature","geometry":{"type":"Point","coordinates":[121.07462,14.66319]},"properties":{"name":"Nuestra Parish Old Balara Community Pantry"}},{"type":"Feature","geometry":{"type":"Point","coordinates":[121.397403,14.258876]},"properties":{"name":"Santa Cruz Laguna Community Pantry"}},{"type":"Feature","geometry":{"type":"Point","coordinates":[120.955566,14.837217]},"properties":{"name":"\"Scam Riders Community Pantry\""}},{"type":"Feature","geometry":{"type":"Point","coordinates":[121.048542,14.627495]},"properties":{"name":"\"rolling community pantry\""}},{"type":"Feature","geometry":{"type":"Point","coordinates":[122.493095,11.543607]},"properties":{"name":"Man-Up Community Pantry"}},{"type":"Feature","geometry":{"type":"Point","coordinates":[120.591853,16.402967]},"properties":{"name":"\"Ferdinand Community Pantry\""}},{"type":"Feature","geometry":{"type":"Point","coordinates":[121.106733,14.569373]},"properties":{"name":"\"Cambridge Community Pantry\""}},{"type":"Feature","geometry":{"type":"Point","coordinates":[120.992406,14.685869]},"properties":{"name":"\"Paminggalan ng Mahal na Señor\""}},{"type":"Feature","geometry":{"type":"Point","coordinates":[123.383331,13.112249]},"properties":{"name":"\"\""}},{"type":"Feature","geometry":{"type":"Point","coordinates":[121.113957,14.662601]},"properties":{"name":"KC8626 Community Pantry"}},{"type":"Feature","geometry":{"type":"Point","coordinates":[120.585848,15.492025]},"properties":{"name":"Tarlakenyo Community Pantry"}},{"type":"Feature","geometry":{"type":"Point","coordinates":[120.977489,14.657343]},"properties":{"name":"SAMSON ROAD COMMUNITY PANTRY"}},{"type":"Feature","geometry":{"type":"Point","coordinates":[121.110873,14.539756]},"properties":{"name":"Lupang Arenda Community Pantry"}},{"type":"Feature","geometry":{"type":"Point","coordinates":[120.960932,14.669359]},"properties":{"name":"\"Catmon Community Pantry\""}},{"type":"Feature","geometry":{"type":"Point","coordinates":[121.000337,14.765142]},"properties":{"name":"\"Sto Niño Community Pantry\""}},{"type":"Feature","geometry":{"type":"Point","coordinates":[120.787434,14.83024]},"properties":{"name":"S.H.a.R.E. (Send Hope and Render Encouragement) "}},{"type":"Feature","geometry":{"type":"Point","coordinates":[121.026753,14.586608]},"properties":{"name":"A.T Reyes Mandaluyong "}},{"type":"Feature","geometry":{"type":"Point","coordinates":[120.794297,15.448972]},"properties":{"name":"ZBT Community Pantry _ SJM Station"}},{"type":"Feature","geometry":{"type":"Point","coordinates":[121.066167,14.538598]},"properties":{"name":"\"Siblings Community Pantry \""}},{"type":"Feature","geometry":{"type":"Point","coordinates":[121.099564,14.644323]},"properties":{"name":"\"STO. NIÑO DAANG BAKAL COMMUNITY PANTRY\""}},{"type":"Feature","geometry":{"type":"Point","coordinates":[121.099564,14.644323]},"properties":{"name":"\"STO. NIÑO DAANG BAKAL COMMUNITY PANTRY\""}},{"type":"Feature","geometry":{"type":"Point","coordinates":[121.099564,14.644323]},"properties":{"name":"\"STO. NIÑO DAANG BAKAL COMMUNITY PANTRY\""}},{"type":"Feature","geometry":{"type":"Point","coordinates":[121.091858,14.64728]},"properties":{"name":"Blesses Community Pantry"}},{"type":"Feature","geometry":{"type":"Point","coordinates":[120.898959,14.480106]},"properties":{"name":"Cavite City Community Pantry "}},{"type":"Feature","geometry":{"type":"Point","coordinates":[123.889996,10.304798]},"properties":{"name":"Sambag 2 - Abante Barangay Community Pantry"}},{"type":"Feature","geometry":{"type":"Point","coordinates":[122.968533,10.799917]},"properties":{"name":"SILAY CITY COMMUNITY PANTRY"}},{"type":"Feature","geometry":{"type":"Point","coordinates":[121.001256,14.641471]},"properties":{"name":"\"MANRESA COMMUNITY PANTRY\""}},{"type":"Feature","geometry":{"type":"Point","coordinates":[121.090928,14.638495]},"properties":{"name":"Blessed Community  Pantry"}},{"type":"Feature","geometry":{"type":"Point","coordinates":[120.956253,14.707857]},"properties":{"name":"Dalandanan Community Pantry"}},{"type":"Feature","geometry":{"type":"Point","coordinates":[121.7366,17.627545]},"properties":{"name":"SANGGUNIANG KA-BARTER PROGRAM"}},{"type":"Feature","geometry":{"type":"Point","coordinates":[121.001821,14.536534]},"properties":{"name":"PASAY CITY COMMUNITY PANTRY - DON CARLOS REVILLA"}},{"type":"Feature","geometry":{"type":"Point","coordinates":[121.035175,14.672768]},"properties":{"name":"\"ICY Community Pantry\""}},{"type":"Feature","geometry":{"type":"Point","coordinates":[121.136154,14.571713]},"properties":{"name":"\"Magandang Lahi Community Pantry\""}},{"type":"Feature","geometry":{"type":"Point","coordinates":[121.135906,14.57116]},"properties":{"name":"\"Magandang Lahi Community Pantry\""}},{"type":"Feature","geometry":{"type":"Point","coordinates":[121.080341,14.538208]},"properties":{"name":"\"Sagip Kapitbahayan SK Palingon-Tipas Community Pantry\""}},{"type":"Feature","geometry":{"type":"Point","coordinates":[121.03024,14.581674]},"properties":{"name":"\"Andre E-store Community Pantry\""}},{"type":"Feature","geometry":{"type":"Point","coordinates":[121.030886,14.581964]},"properties":{"name":"\"\""}},{"type":"Feature","geometry":{"type":"Point","coordinates":[120.606577,16.407391]},"properties":{"name":"BENECO MCO Community Pantry"}},{"type":"Feature","geometry":{"type":"Point","coordinates":[120.983742,14.65414]},"properties":{"name":"Community Pantry sa LRT-1 Monumento Station"}},{"type":"Feature","geometry":{"type":"Point","coordinates":[121.030943,14.95236]},"properties":{"name":"The Good Samaritan Angat Community Pantry"}},{"type":"Feature","geometry":{"type":"Point","coordinates":[120.988597,14.655238]},"properties":{"name":"South Caloocan Community Pantry"}},{"type":"Feature","geometry":{"type":"Point","coordinates":[121.010007,14.536248]},"properties":{"name":"MALIBAY COMMUNITY PANTRY"}},{"type":"Feature","geometry":{"type":"Point","coordinates":[121.062601,14.345313]},"properties":{"name":"Pacita Community Pantry"}},{"type":"Feature","geometry":{"type":"Point","coordinates":[120.958335,14.621293]},"properties":{"name":"\"HAPPY LAND COMMUNITY PANTRY \""}},{"type":"Feature","geometry":{"type":"Point","coordinates":[120.607156,16.375303]},"properties":{"name":"BCPO-CMFC Barangayanihan"}},{"type":"Feature","geometry":{"type":"Point","coordinates":[121.045631,14.645482]},"properties":{"name":"Lagoon Community Pantry"}},{"type":"Feature","geometry":{"type":"Point","coordinates":[120.980904,14.613629]},"properties":{"name":"DOH Family Community Pantry"}},{"type":"Feature","geometry":{"type":"Point","coordinates":[121.078545,14.579048]},"properties":{"name":"Barangay Ugong Community Pantry"}},{"type":"Feature","geometry":{"type":"Point","coordinates":[123.306996,9.32792]},"properties":{"name":"Bantayan Community Pantry - Dumaguete"}},{"type":"Feature","geometry":{"type":"Point","coordinates":[121.11814,14.682452]},"properties":{"name":"\"Ampid Community Pantry\""}},{"type":"Feature","geometry":{"type":"Point","coordinates":[120.598042,16.3845]},"properties":{"name":"Camp 7 Community Pantry"}},{"type":"Feature","geometry":{"type":"Point","coordinates":[120.821304,14.855496]},"properties":{"name":"Hatid ng Alay Community Pantry"}},{"type":"Feature","geometry":{"type":"Point","coordinates":[124.686779,11.301081]},"properties":{"name":"Carigara Community Pantry"}},{"type":"Feature","geometry":{"type":"Point","coordinates":[121.44858,14.413377]},"properties":{"name":"TULUNGAN SA SINILOAN - LSPU SINILOAN COMMUNITY PANTRY"}},{"type":"Feature","geometry":{"type":"Point","coordinates":[121.031753,14.364572]},"properties":{"name":"\"San Pedro Community Pantry\""}},{"type":"Feature","geometry":{"type":"Point","coordinates":[118.904389,12.676193]},"properties":{"name":"\"to Purok2 Subdivision Palita Community Pantry\""}},{"type":"Feature","geometry":{"type":"Point","coordinates":[121.981666,12.380309]},"properties":{"name":"\"Magsikap Bangon Community Pantry\""}},{"type":"Feature","geometry":{"type":"Point","coordinates":[120.586076,15.168908]},"properties":{"name":"Balibago Community Pantry"}},{"type":"Feature","geometry":{"type":"Point","coordinates":[118.234863,14.838612]},"properties":{"name":"\"The Soap Farm Weekend Pantry\""}},{"type":"Feature","geometry":{"type":"Point","coordinates":[121.074761,14.548155]},"properties":{"name":"\"Sta. Ana kaliwa Communitry pantry\""}},{"type":"Feature","geometry":{"type":"Point","coordinates":[121.068124,14.748911]},"properties":{"name":"\"Dela Costa 2 Community Pantry\""}},{"type":"Feature","geometry":{"type":"Point","coordinates":[121.030954,14.588474]},"properties":{"name":"\"Team Piloton Community PAW-ntry , A Pantry for Cats and Dogs\""}},{"type":"Feature","geometry":{"type":"Point","coordinates":[120.976934,15.500041]},"properties":{"name":"\"CABSY (CABANATUAN) Community Pantry\""}},{"type":"Feature","geometry":{"type":"Point","coordinates":[120.983645,14.578737]},"properties":{"name":"Faura community pantry"}},{"type":"Feature","geometry":{"type":"Point","coordinates":[120.7441,14.861123]},"properties":{"name":"Hagonoy Community Pantry"}},{"type":"Feature","geometry":{"type":"Point","coordinates":[121.030744,14.579186]},"properties":{"name":"\"TITAS OF PLAINVIEW \""}},{"type":"Feature","geometry":{"type":"Point","coordinates":[120.821512,14.858397]},"properties":{"name":"Sumapa Community Pantry"}},{"type":"Feature","geometry":{"type":"Point","coordinates":[121.031595,14.606693]},"properties":{"name":"Corazon de Jesus Community Pantry"}},{"type":"Feature","geometry":{"type":"Point","coordinates":[121.610313,13.951181]},"properties":{"name":"\"The Soap Farm Weekend Pantry\""}},{"type":"Feature","geometry":{"type":"Point","coordinates":[122.235048,10.642109]},"properties":{"name":"\"Buligay! Community Pantry\""}},{"type":"Feature","geometry":{"type":"Point","coordinates":[121.030905,14.631785]},"properties":{"name":"\"Sct Dr Lazcano + Tomas Morato Community Pantry\""}},{"type":"Feature","geometry":{"type":"Point","coordinates":[121.076672,14.677157]},"properties":{"name":"Don Antonio Heights Community Pantry"}},{"type":"Feature","geometry":{"type":"Point","coordinates":[121.044686,14.391699]},"properties":{"name":"Muntinlupa Community Pantry"}},{"type":"Feature","geometry":{"type":"Point","coordinates":[120.948547,14.340347]},"properties":{"name":"Halinhinan Community Pantry - Brgy. St. Peter 1"}},{"type":"Feature","geometry":{"type":"Point","coordinates":[121.40758,17.614922]},"properties":{"name":"\"PINUKPUK COMMUNITY PANTRY\""}},{"type":"Feature","geometry":{"type":"Point","coordinates":[120.948498,14.102937]},"properties":{"name":"\"Tagaytay Community Pantry\""}},{"type":"Feature","geometry":{"type":"Point","coordinates":[120.977698,14.605518]},"properties":{"name":"\"Benavidez Street Community Pantry\""}},{"type":"Feature","geometry":{"type":"Point","coordinates":[122.146522,6.971982]},"properties":{"name":"\"Zamboanga Community Pantry\""}},{"type":"Feature","geometry":{"type":"Point","coordinates":[122.103483,6.950853]},"properties":{"name":"\"Zamboanga Community Pantry\""}},{"type":"Feature","geometry":{"type":"Point","coordinates":[120.941145,14.682912]},"properties":{"name":"\"Don Basilio Community Pantry\""}},{"type":"Feature","geometry":{"type":"Point","coordinates":[125.604479,8.965441]},"properties":{"name":"\"Butuan Community Pantry\""}},{"type":"Feature","geometry":{"type":"Point","coordinates":[121.484166,14.364228]},"properties":{"name":"\"Paminggalan ng Bayan sa Acyatan\""}},{"type":"Feature","geometry":{"type":"Point","coordinates":[121.48176,14.36427]},"properties":{"name":"\"Chikiting Pantry\""}},{"type":"Feature","geometry":{"type":"Point","coordinates":[121.054898,14.509313]},"properties":{"name":"\"Central Signal Community Pantry\""}},{"type":"Feature","geometry":{"type":"Point","coordinates":[121.041091,14.636198]},"properties":{"name":"\"Samar Avenue Community Pantry\""}},{"type":"Feature","geometry":{"type":"Point","coordinates":[120.936958,14.708777]},"properties":{"name":"\"Munting Pag-asa Community Pantry \""}},{"type":"Feature","geometry":{"type":"Point","coordinates":[121.077999,14.665875]},"properties":{"name":"\"Larossa Community Pantry\""}},{"type":"Feature","geometry":{"type":"Point","coordinates":[121.007172,14.580069]},"properties":{"name":"\"Pedro Gil, Sta. Ana, Manila Community Pantry\""}},{"type":"Feature","geometry":{"type":"Point","coordinates":[121.262809,14.187317]},"properties":{"name":"\"Kabaritan Community Pantry\""}},{"type":"Feature","geometry":{"type":"Point","coordinates":[121.056876,14.642774]},"properties":{"name":"\"Malingap tvill west community pantry\""}},{"type":"Feature","geometry":{"type":"Point","coordinates":[120.893995,14.173273]},"properties":{"name":"\"Longwood Indang Community Pantry\""}},{"type":"Feature","geometry":{"type":"Point","coordinates":[121.140694,14.618989]},"properties":{"name":"\"Mambugan Community Pantry\""}},{"type":"Feature","geometry":{"type":"Point","coordinates":[120.59762,16.431424]},"properties":{"name":"La Trinidad Police Station Barangayanihan"}},{"type":"Feature","geometry":{"type":"Point","coordinates":[120.977028,14.608221]},"properties":{"name":"\"Tondo Community Pantry\""}},{"type":"Feature","geometry":{"type":"Point","coordinates":[121.061456,14.562662]},"properties":{"name":"\"Dagohoy Street Community Pantry\""}},{"type":"Feature","geometry":{"type":"Point","coordinates":[121.061184,14.561485]},"properties":{"name":"\"Dagohoy Street West Rembo Community Pantry\""}},{"type":"Feature","geometry":{"type":"Point","coordinates":[21.794546,38.309453]},"properties":{"name":"\"\""}},{"type":"Feature","geometry":{"type":"Point","coordinates":[121.117124,14.650229]},"properties":{"name":"\"HAPPY MELDI FRIENDS COMMUNITY PANTRY \""}},{"type":"Feature","geometry":{"type":"Point","coordinates":[122.968168,10.698563]},"properties":{"name":"\"\""}},{"type":"Feature","geometry":{"type":"Point","coordinates":[122.964349,10.688737]},"properties":{"name":"\"\""}},{"type":"Feature","geometry":{"type":"Point","coordinates":[125.362673,6.729309]},"properties":{"name":"PUROK TALAKITOK COMMUNITY PANTRY (DAWIS, DIGOS CITY)"}},{"type":"Feature","geometry":{"type":"Point","coordinates":[121.194997,14.595747]},"properties":{"name":"\"Famous Community Pantry\""}},{"type":"Feature","geometry":{"type":"Point","coordinates":[121.037539,14.603999]},"properties":{"name":"\"MASCARDO COMMUNITY PANTRY\""}},{"type":"Feature","geometry":{"type":"Point","coordinates":[121.120567,14.66223]},"properties":{"name":"\"Tales of Solidarity Community Pantry\""}},{"type":"Feature","geometry":{"type":"Point","coordinates":[120.961445,14.616404]},"properties":{"name":"\"Tondo Community Pantry\""}},{"type":"Feature","geometry":{"type":"Point","coordinates":[121.015324,14.52896]},"properties":{"name":"Brgy. 183, Villamor Community Pantry"}},{"type":"Feature","geometry":{"type":"Point","coordinates":[121.031452,14.789644]},"properties":{"name":"\"4Ps Pabahay Ph.1 Community Pantry\""}},{"type":"Feature","geometry":{"type":"Point","coordinates":[121.031463,14.789821]},"properties":{"name":"\"4Ps PABAHAY PH.1 COMMUNITY PANTRY\""}},{"type":"Feature","geometry":{"type":"Point","coordinates":[121.077957,14.562063]},"properties":{"name":"\"San Nicolas Community Pantry\""}},{"type":"Feature","geometry":{"type":"Point","coordinates":[121.291552,13.697194]},"properties":{"name":"\"\""}},{"type":"Feature","geometry":{"type":"Point","coordinates":[123.634859,10.376624]},"properties":{"name":"\"Toledo City Community Pantry\""}},{"type":"Feature","geometry":{"type":"Point","coordinates":[120.985887,14.335172]},"properties":{"name":"\"Tabang (tulong) Community Pantry\""}},{"type":"Feature","geometry":{"type":"Point","coordinates":[120.985887,14.335183]},"properties":{"name":"\"Tabang (tulong) Community Pantry\""}},{"type":"Feature","geometry":{"type":"Point","coordinates":[121.129796,14.565581]},"properties":{"name":"Rosario Community Pantry"}},{"type":"Feature","geometry":{"type":"Point","coordinates":[121.03811,14.660668]},"properties":{"name":"LGBTQ+ Community Pantry"}},{"type":"Feature","geometry":{"type":"Point","coordinates":[121.096571,14.642422]},"properties":{"name":"Emerald Village Community Pantry"}},{"type":"Feature","geometry":{"type":"Point","coordinates":[120.68611,15.034739]},"properties":{"name":"Dolores Community Pantry"}},{"type":"Feature","geometry":{"type":"Point","coordinates":[121.027248,14.445631]},"properties":{"name":"Bayaning Filipino Community Pantry"}},{"type":"Feature","geometry":{"type":"Point","coordinates":[121.06444,14.647607]},"properties":{"name":"Sarah's Komyunity Pantry"}},{"type":"Feature","geometry":{"type":"Point","coordinates":[120.861785,14.840657]},"properties":{"name":"Sta. Cruz Community Pantry"}},{"type":"Feature","geometry":{"type":"Point","coordinates":[120.970412,14.641991]},"properties":{"name":"Martinez Extension Community Pantry"}},{"type":"Feature","geometry":{"type":"Point","coordinates":[121.271982,14.142261]},"properties":{"name":"Masaya Community Pantry"}},{"type":"Feature","geometry":{"type":"Point","coordinates":[121.15075,14.572785]},"properties":{"name":"Maharlika Community Pantry"}},{"type":"Feature","geometry":{"type":"Point","coordinates":[121.133645,14.562647]},"properties":{"name":"Callejon 1 Community Pantry"}},{"type":"Feature","geometry":{"type":"Point","coordinates":[120.366822,16.32484]},"properties":{"name":"Community Pantry Agoo (Beside Ice Cream House)"}},{"type":"Feature","geometry":{"type":"Point","coordinates":[121.736456,17.627344]},"properties":{"name":"TANZA COMMUNITY PANTRY"}},{"type":"Feature","geometry":{"type":"Point","coordinates":[120.661448,15.218059]},"properties":{"name":"San Nicolas 1 Barangay Pantry"}},{"type":"Feature","geometry":{"type":"Point","coordinates":[121.05497,14.646997]},"properties":{"name":"Mahinhin St. - Claret QC Community Pantry"}},{"type":"Feature","geometry":{"type":"Point","coordinates":[122.945799,10.598472]},"properties":{"name":"brgy cabug community pantry"}},{"type":"Feature","geometry":{"type":"Point","coordinates":[121.084548,14.605072]},"properties":{"name":"Eastwood Community Pantry"}},{"type":"Feature","geometry":{"type":"Point","coordinates":[121.061898,14.528653]},"properties":{"name":"Taguig Community Pantry"}},{"type":"Feature","geometry":{"type":"Point","coordinates":[121.990314,12.418566]},"properties":{"name":"Bulig sa Odiongan Community Pantry"}},{"type":"Feature","geometry":{"type":"Point","coordinates":[121.054847,14.534826]},"properties":{"name":"Palar Community Pantry"}},{"type":"Feature","geometry":{"type":"Point","coordinates":[121.025879,14.586875]},"properties":{"name":"IFI MANDALUYONG COMMUNITY PANTRY"}},{"type":"Feature","geometry":{"type":"Point","coordinates":[120.55256,14.668386]},"properties":{"name":"Hapag ng Bayan"}},{"type":"Feature","geometry":{"type":"Point","coordinates":[120.601234,16.427871]},"properties":{"name":"Leonila Hill Community Pantry"}},{"type":"Feature","geometry":{"type":"Point","coordinates":[121.810146,16.724668]},"properties":{"name":"Anika's Restaurant Community Pantry"}},{"type":"Feature","geometry":{"type":"Point","coordinates":[119.392639,11.183052]},"properties":{"name":"El Nido Community Pantry"}},{"type":"Feature","geometry":{"type":"Point","coordinates":[122.955787,10.684088]},"properties":{"name":"Barangay 4"}},{"type":"Feature","geometry":{"type":"Point","coordinates":[123.952459,10.306278]},"properties":{"name":"Gun-ob Community Pantry"}},{"type":"Feature","geometry":{"type":"Point","coordinates":[123.185111,13.634031]},"properties":{"name":"Naga City Pop-up Community Pantry"}},{"type":"Feature","geometry":{"type":"Point","coordinates":[124.634626,8.479595]},"properties":{"name":"TINABANGAY: CDO COMMUNITY PANTRY"}},{"type":"Feature","geometry":{"type":"Point","coordinates":[121.132817,14.56438]},"properties":{"name":"Frostlite Community Pantry"}},{"type":"Feature","geometry":{"type":"Point","coordinates":[124.84358,6.500468]},"properties":{"name":"Buliganay Community Pantry"}},{"type":"Feature","geometry":{"type":"Point","coordinates":[121.011789,14.871432]},"properties":{"name":"TDSM Phase 1,2,3 Community Pantry"}},{"type":"Feature","geometry":{"type":"Point","coordinates":[120.588475,16.422193]},"properties":{"name":"Kadiwa Community Pantry"}},{"type":"Feature","geometry":{"type":"Point","coordinates":[121.121638,14.583541]},"properties":{"name":"Mayfair Cainta Community Pantry"}},{"type":"Feature","geometry":{"type":"Point","coordinates":[120.234088,14.877997]},"properties":{"name":"Subictown Community Pantry"}},{"type":"Feature","geometry":{"type":"Point","coordinates":[121.136708,14.573811]},"properties":{"name":"Medina Compound Community Pantry"}},{"type":"Feature","geometry":{"type":"Point","coordinates":[120.989591,15.791629]},"properties":{"name":"San Jose City Community Pantry"}},{"type":"Feature","geometry":{"type":"Point","coordinates":[122.323738,13.594799]},"properties":{"name":"MSEUF Catanauan Community Pantry"}},{"type":"Feature","geometry":{"type":"Point","coordinates":[120.532379,14.980607]},"properties":{"name":"Pabanlag Community Pantry"}},{"type":"Feature","geometry":{"type":"Point","coordinates":[120.987829,14.608299]},"properties":{"name":"UST Community Pantry (P. Noval)"}},{"type":"Feature","geometry":{"type":"Point","coordinates":[121.065549,14.811971]},"properties":{"name":"SJDM Community Pantry"}},{"type":"Feature","geometry":{"type":"Point","coordinates":[121.649745,14.747129]},"properties":{"name":"Banggerahan ni San Marcos"}},{"type":"Feature","geometry":{"type":"Point","coordinates":[121.002254,14.575167]},"properties":{"name":"Onyx - Diamante Community Pantry"}},{"type":"Feature","geometry":{"type":"Point","coordinates":[121.149834,14.52379]},"properties":{"name":"Holle Community pantry"}},{"type":"Feature","geometry":{"type":"Point","coordinates":[120.987121,14.577834]},"properties":{"name":"UPM-PGH community pantry"}},{"type":"Feature","geometry":{"type":"Point","coordinates":[121.015984,14.597328]},"properties":{"name":"Bacood Community Pantry"}},{"type":"Feature","geometry":{"type":"Point","coordinates":[121.173301,13.948036]},"properties":{"name":"Lipa Community Pantry"}},{"type":"Feature","geometry":{"type":"Point","coordinates":[121.137232,14.585054]},"properties":{"name":"Simona Community Pantry"}},{"type":"Feature","geometry":{"type":"Point","coordinates":[120.988733,14.657828]},"properties":{"name":"Loreto Community Pantry"}},{"type":"Feature","geometry":{"type":"Point","coordinates":[121.014407,14.525008]},"properties":{"name":"Villamor Community Pantry (3rd 8th)"}},{"type":"Feature","geometry":{"type":"Point","coordinates":[120.937766,14.311937]},"properties":{"name":"Sitio Bisaya Brgy. Zone III Community Pantry"}},{"type":"Feature","geometry":{"type":"Point","coordinates":[121.008426,14.667902]},"properties":{"name":"Baesa Community Pantry"}},{"type":"Feature","geometry":{"type":"Point","coordinates":[121.125707,14.575693]},"properties":{"name":"Estrella Community Pantry"}},{"type":"Feature","geometry":{"type":"Point","coordinates":[121.029976,14.59827]},"properties":{"name":"San Juan #CommunityPantry."}},{"type":"Feature","geometry":{"type":"Point","coordinates":[122.070214,12.620533]},"properties":{"name":"Calatrava Community Pantry"}},{"type":"Feature","geometry":{"type":"Point","coordinates":[121.063772,14.560159]},"properties":{"name":"West Rembo Community Pantry"}},{"type":"Feature","geometry":{"type":"Point","coordinates":[123.418494,13.420577]},"properties":{"name":"San Roque Community Pantry"}},{"type":"Feature","geometry":{"type":"Point","coordinates":[124.876042,12.539259]},"properties":{"name":"San Roque Community Pantry"}},{"type":"Feature","geometry":{"type":"Point","coordinates":[121.130028,14.566357]},"properties":{"name":"Elvie's Community Pantry"}},{"type":"Feature","geometry":{"type":"Point","coordinates":[120.99842,14.431645]},"properties":{"name":"Garden Homes BFRV Community Pantry"}},{"type":"Feature","geometry":{"type":"Point","coordinates":[120.946783,14.706178]},"properties":{"name":"Brgy. Palasan (Valenzuela City) Community Pantry"}},{"type":"Feature","geometry":{"type":"Point","coordinates":[121.699186,16.77807]},"properties":{"name":"Alicia, Isabela Community Pantry"}},{"type":"Feature","geometry":{"type":"Point","coordinates":[121.039402,14.602158]},"properties":{"name":"Little Baguio Community Pantry"}},{"type":"Feature","geometry":{"type":"Point","coordinates":[121.115595,14.649929]},"properties":{"name":"Marikina Heights Community Pantry"}},{"type":"Feature","geometry":{"type":"Point","coordinates":[118.745812,9.734511]},"properties":{"name":"Milagrosa Community Pantry"}},{"type":"Feature","geometry":{"type":"Point","coordinates":[121.063371,14.625297]},"properties":{"name":"One Project 4 Community Pantry"}},{"type":"Feature","geometry":{"type":"Point","coordinates":[121.940162,12.336492]},"properties":{"name":"Ferrol Municipal Police Station Community Pantry"}},{"type":"Feature","geometry":{"type":"Point","coordinates":[121.080208,14.576113]},"properties":{"name":"Basic Ecclesial Community (BEC) Pantry"}},{"type":"Feature","geometry":{"type":"Point","coordinates":[121.071309,14.634549]},"properties":{"name":"Xavierville Community Pantry"}},{"type":"Feature","geometry":{"type":"Point","coordinates":[121.000828,14.713918]},"properties":{"name":"Bagbaguin Community Pantry"}},{"type":"Feature","geometry":{"type":"Point","coordinates":[121.100141,14.54873]},"properties":{"name":"Arezzo Place Pasig Community Pantry"}},{"type":"Feature","geometry":{"type":"Point","coordinates":[120.594609,16.412955]},"properties":{"name":"Baguio Community Pantry at Igorot Park"}},{"type":"Feature","geometry":{"type":"Point","coordinates":[121.127543,14.638753]},"properties":{"name":"Rancho/Panorama Community Pantry"}},{"type":"Feature","geometry":{"type":"Point","coordinates":[124.236362,13.583871]},"properties":{"name":"Mobile Community Pantry"}},{"type":"Feature","geometry":{"type":"Point","coordinates":[121.101118,14.578731]},"properties":{"name":"Bliss community pantry"}},{"type":"Feature","geometry":{"type":"Point","coordinates":[122.480993,10.879809]},"properties":{"name":"Cabatuan Community Pantry"}},{"type":"Feature","geometry":{"type":"Point","coordinates":[121.128898,14.565744]},"properties":{"name":"Isaganing Putol Community Pantry"}},{"type":"Feature","geometry":{"type":"Point","coordinates":[121.620358,13.905794]},"properties":{"name":"Sk Rafael Community Pantry"}},{"type":"Feature","geometry":{"type":"Point","coordinates":[121.058555,13.763751]},"properties":{"name":"Batangas Community Pantry"}},{"type":"Feature","geometry":{"type":"Point","coordinates":[125.354586,6.736855]},"properties":{"name":"Digos Community Pantry (San Jose)"}},{"type":"Feature","geometry":{"type":"Point","coordinates":[121.121942,14.543366]},"properties":{"name":"Nagtinig Rd 21 Community Pantry"}},{"type":"Feature","geometry":{"type":"Point","coordinates":[121.068463,14.659612]},"properties":{"name":"Diliman Community Pantry (Area 2)"}},{"type":"Feature","geometry":{"type":"Point","coordinates":[120.387404,17.570458]},"properties":{"name":"Brgy. IX (Cuta) Vigan City Community Pantry"}},{"type":"Feature","geometry":{"type":"Point","coordinates":[124.244416,8.221974]},"properties":{"name":"Ubaldo Laya Community Pantry"}},{"type":"Feature","geometry":{"type":"Point","coordinates":[121.734009,17.619041]},"properties":{"name":"Balzain Community Pantry"}},{"type":"Feature","geometry":{"type":"Point","coordinates":[121.044984,14.560743]},"properties":{"name":"Inang Lupe Community Pantry"}},{"type":"Feature","geometry":{"type":"Point","coordinates":[124.330553,12.534032]},"properties":{"name":"Nay Maria Community Pantry"}},{"type":"Feature","geometry":{"type":"Point","coordinates":[121.128369,14.571787]},"properties":{"name":"Rizal Ave Community Pantry"}},{"type":"Feature","geometry":{"type":"Point","coordinates":[120.280479,14.836303]},"properties":{"name":"16th West Community Pantry"}},{"type":"Feature","geometry":{"type":"Point","coordinates":[121.151357,14.571989]},"properties":{"name":"Sitio Victoria Cabrera Road Community Pantry"}},{"type":"Feature","geometry":{"type":"Point","coordinates":[122.880796,14.105589]},"properties":{"name":"BRGY. MAN-OGOB COMMUNITY PANTRY"}},{"type":"Feature","geometry":{"type":"Point","coordinates":[121.108095,14.637593]},"properties":{"name":"Zenaida II Open Community Pantry"}},{"type":"Feature","geometry":{"type":"Point","coordinates":[120.592885,15.486644]},"properties":{"name":"Hapag ni Juan Community Pantry"}},{"type":"Feature","geometry":{"type":"Point","coordinates":[120.997477,14.692546]},"properties":{"name":"Gen. T. De Leon Community Pantry"}},{"type":"Feature","geometry":{"type":"Point","coordinates":[121.065833,14.621292]},"properties":{"name":"Masagana Community Pantry and Kitchen"}},{"type":"Feature","geometry":{"type":"Point","coordinates":[121.548988,16.691044]},"properties":{"name":"Barangay Centro East community pantry"}},{"type":"Feature","geometry":{"type":"Point","coordinates":[121.143341,14.543531]},"properties":{"name":"Italia Community Pantry"}},{"type":"Feature","geometry":{"type":"Point","coordinates":[120.977178,14.599958]},"properties":{"name":"CDAM Community Pantry"}},{"type":"Feature","geometry":{"type":"Point","coordinates":[121.046231,14.608663]},"properties":{"name":"San Juan Cemetery Community Pantry"}},{"type":"Feature","geometry":{"type":"Point","coordinates":[120.018096,15.286611]},"properties":{"name":"San Miguel Community Pantry - Botolan Zambales"}},{"type":"Feature","geometry":{"type":"Point","coordinates":[121.031625,14.678735]},"properties":{"name":"Project AKAP"}},{"type":"Feature","geometry":{"type":"Point","coordinates":[120.592451,16.442625]},"properties":{"name":"Km 4 Community Pantry"}},{"type":"Feature","geometry":{"type":"Point","coordinates":[120.6029,16.41387]},"properties":{"name":"ONE YANGCO COMMUNITY PANTRY"}},{"type":"Feature","geometry":{"type":"Point","coordinates":[121.185291,16.51753]},"properties":{"name":"Solano East Community Pantry"}},{"type":"Feature","geometry":{"type":"Point","coordinates":[123.413249,13.431104]},"properties":{"name":"Balaigang San Nicolas Community Pantry"}},{"type":"Feature","geometry":{"type":"Point","coordinates":[121.176561,13.411166]},"properties":{"name":"The Vine Mart Community Pantry"}},{"type":"Feature","geometry":{"type":"Point","coordinates":[120.99938,14.610388]},"properties":{"name":"MESA NG MASA COMMUNITY PANTRY"}},{"type":"Feature","geometry":{"type":"Point","coordinates":[121.187517,14.615733]},"properties":{"name":"Steelhomes Community Pantry"}},{"type":"Feature","geometry":{"type":"Point","coordinates":[121.010395,14.469695]},"properties":{"name":"Muntinlupa Community Pantry"}},{"type":"Feature","geometry":{"type":"Point","coordinates":[121.24408,14.1696]},"properties":{"name":"Elbi Community Pantry"}},{"type":"Feature","geometry":{"type":"Point","coordinates":[121.00348,14.610967]},"properties":{"name":"MHTP Pantry of Blessings"}},{"type":"Feature","geometry":{"type":"Point","coordinates":[122.12377,16.277141]},"properties":{"name":"Saint Anthony de Padua Community Pantry"}},{"type":"Feature","geometry":{"type":"Point","coordinates":[121.135063,14.728281]},"properties":{"name":"San Jose Community Pantry"}},{"type":"Feature","geometry":{"type":"Point","coordinates":[120.8906,14.298798]},"properties":{"name":"Golden Horizon (Pabahay) Community Pantry"}},{"type":"Feature","geometry":{"type":"Point","coordinates":[123.790825,13.292867]},"properties":{"name":"Bacacay Community Pantry"}},{"type":"Feature","geometry":{"type":"Point","coordinates":[120.694442,15.028784]},"properties":{"name":"Bayan ng San Fernando Community Pantry"}},{"type":"Feature","geometry":{"type":"Point","coordinates":[123.273345,13.556061]},"properties":{"name":"Pili Community Pantry"}},{"type":"Feature","geometry":{"type":"Point","coordinates":[122.364133,11.708544]},"properties":{"name":"Pastrana St. Kalibo Community Pantry"}},{"type":"Feature","geometry":{"type":"Point","coordinates":[121.031707,14.754292]},"properties":{"name":"MHWG Community Pantry"}},{"type":"Feature","geometry":{"type":"Point","coordinates":[121.053586,14.574157]},"properties":{"name":"Pioneer Community Pantry"}},{"type":"Feature","geometry":{"type":"Point","coordinates":[121.398513,14.257635]},"properties":{"name":"EKIT-EDIT Community Pantry"}},{"type":"Feature","geometry":{"type":"Point","coordinates":[120.597782,16.416193]},"properties":{"name":"BBCCC Community Pantry"}},{"type":"Feature","geometry":{"type":"Point","coordinates":[120.017202,15.286386]},"properties":{"name":"San Miguel Community Pantry - Botolan Zambales"}},{"type":"Feature","geometry":{"type":"Point","coordinates":[120.994585,14.427329]},"properties":{"name":"Help Our OPPA"}},{"type":"Feature","geometry":{"type":"Point","coordinates":[121.128885,14.568099]},"properties":{"name":"Ma. Clara Community Pantry"}},{"type":"Feature","geometry":{"type":"Point","coordinates":[121.444694,14.417454]},"properties":{"name":"Siniloan Community Pantry Gen. Luna St."}},{"type":"Feature","geometry":{"type":"Point","coordinates":[120.993274,14.627698]},"properties":{"name":"La Loma Community Pantry"}},{"type":"Feature","geometry":{"type":"Point","coordinates":[121.142335,14.623077]},"properties":{"name":"Mambugan Community Pantry"}},{"type":"Feature","geometry":{"type":"Point","coordinates":[121.001728,14.567842]},"properties":{"name":"Taal/Lemery San Andres Bukid Community Pantry 2"}},{"type":"Feature","geometry":{"type":"Point","coordinates":[121.013138,14.750537]},"properties":{"name":"Nagkaisa Community Pantry"}},{"type":"Feature","geometry":{"type":"Point","coordinates":[121.019431,14.638087]},"properties":{"name":"East Riverside Community Pantry"}},{"type":"Feature","geometry":{"type":"Point","coordinates":[120.92513,14.803916]},"properties":{"name":"Cainging community pantry"}},{"type":"Feature","geometry":{"type":"Point","coordinates":[122.172805,6.954689]},"properties":{"name":"Talabaan Community Pantry"}},{"type":"Feature","geometry":{"type":"Point","coordinates":[122.241172,13.632946]},"properties":{"name":"SINHS-Catanauan Non-Teaching Community Pantry"}},{"type":"Feature","geometry":{"type":"Point","coordinates":[121.111878,14.536765]},"properties":{"name":"Sampaguita Community Pantry"}},{"type":"Feature","geometry":{"type":"Point","coordinates":[121.113946,14.662608]},"properties":{"name":"KC8626 Community Pantry"}},{"type":"Feature","geometry":{"type":"Point","coordinates":[121.028668,14.927263]},"properties":{"name":"HIRAYA NG PAG-ASA COMMUNITY PANTRY"}},{"type":"Feature","geometry":{"type":"Point","coordinates":[120.96458,14.671034]},"properties":{"name":"Tinajeros Community Pantry"}},{"type":"Feature","geometry":{"type":"Point","coordinates":[121.243559,14.176511]},"properties":{"name":"Bangkal Community Pantry"}},{"type":"Feature","geometry":{"type":"Point","coordinates":[120.964703,14.670017]},"properties":{"name":"Tinajeros Community Pantry"}},{"type":"Feature","geometry":{"type":"Point","coordinates":[120.970877,14.643386]},"properties":{"name":"Brgy 28 Caloocan Community Pantry"}},{"type":"Feature","geometry":{"type":"Point","coordinates":[121.144127,14.580522]},"properties":{"name":"Palmera 1 Community Pantry"}},{"type":"Feature","geometry":{"type":"Point","coordinates":[121.133619,14.568932]},"properties":{"name":"Malaya Community Pantry"}},{"type":"Feature","geometry":{"type":"Point","coordinates":[120.974432,14.619606]},"properties":{"name":"Barmat Community Pantry"}},{"type":"Feature","geometry":{"type":"Point","coordinates":[122.031141,13.480295]},"properties":{"name":"Traffic community pantry"}},{"type":"Feature","geometry":{"type":"Point","coordinates":[121.050282,14.81206]},"properties":{"name":"4Ps Pabahay Ph. 1 Community pantry "}},{"type":"Feature","geometry":{"type":"Point","coordinates":[120.998601,14.564049]},"properties":{"name":"MALATE COMMUNITY PANTRY"}},{"type":"Feature","geometry":{"type":"Point","coordinates":[121.468433,14.400106]},"properties":{"name":"Pangil Mini Community Pantry"}},{"type":"Feature","geometry":{"type":"Point","coordinates":[121.003732,14.588325]},"properties":{"name":"Pandacan Community Pantry (Flerida cor. Kahilum II)"}},{"type":"Feature","geometry":{"type":"Point","coordinates":[120.958086,14.62332]},"properties":{"name":"Sector ng mga may kapansanan sa Aroma Community Pantry"}},{"type":"Feature","geometry":{"type":"Point","coordinates":[121.003021,14.479405]},"properties":{"name":"Multi Sharing Station"}},{"type":"Feature","geometry":{"type":"Point","coordinates":[121.110189,14.645362]},"properties":{"name":"Friendly Village Community Pantry"}},{"type":"Feature","geometry":{"type":"Point","coordinates":[121.337812,14.009197]},"properties":{"name":"Balanga Community Pantry"}},{"type":"Feature","geometry":{"type":"Point","coordinates":[121.126169,14.574254]},"properties":{"name":"Sitio Bayabas Community Pantry"}},{"type":"Feature","geometry":{"type":"Point","coordinates":[121.11103,14.659631]},"properties":{"name":"Parang Community Pantry"}},{"type":"Feature","geometry":{"type":"Point","coordinates":[120.589301,16.454907]},"properties":{"name":"Betag Community Pantry"}},{"type":"Feature","geometry":{"type":"Point","coordinates":[120.873201,14.797481]},"properties":{"name":"Sto. Cristo de Maysantol Community Pantry"}},{"type":"Feature","geometry":{"type":"Point","coordinates":[121.088334,14.696814]},"properties":{"name":"Commonwealth Community Pantry"}},{"type":"Feature","geometry":{"type":"Point","coordinates":[121.127085,14.570343]},"properties":{"name":"Silahis Community Pantry"}},{"type":"Feature","geometry":{"type":"Point","coordinates":[120.290271,14.846097]},"properties":{"name":"Mesa Para sa Masang Olongapeño "}},{"type":"Feature","geometry":{"type":"Point","coordinates":[120.977108,14.460833]},"properties":{"name":"Good Shepherd Parish - Las PiÑas Community Pantry"}},{"type":"Feature","geometry":{"type":"Point","coordinates":[121.311885,14.072696]},"properties":{"name":"San Roque Community Pantry (San Pablo City)"}},{"type":"Feature","geometry":{"type":"Point","coordinates":[120.778015,14.904604]},"properties":{"name":" Bayanihan sa Sto. Nino, Calumpit, Bulacan Community Pantry"}},{"type":"Feature","geometry":{"type":"Point","coordinates":[121.164833,14.260759]},"properties":{"name":"Gulod Community Pantry"}},{"type":"Feature","geometry":{"type":"Point","coordinates":[121.065879,14.553092]},"properties":{"name":"Buting Community Free shop and Pantry"}},{"type":"Feature","geometry":{"type":"Point","coordinates":[121.920575,11.968016]},"properties":{"name":"Balabag Boracay Community Pantry"}},{"type":"Feature","geometry":{"type":"Point","coordinates":[120.744572,14.284524]},"properties":{"name":"San Miguel B Community Pantry"}},{"type":"Feature","geometry":{"type":"Point","coordinates":[121.023533,14.602695]},"properties":{"name":"PONDA COMMUNITY PANTRY"}},{"type":"Feature","geometry":{"type":"Point","coordinates":[120.880229,13.72323]},"properties":{"name":"Bagalangit Community Pantry"}},{"type":"Feature","geometry":{"type":"Point","coordinates":[121.620616,13.960232]},"properties":{"name":"Lucena Community Pantry"}},{"type":"Feature","geometry":{"type":"Point","coordinates":[121.064591,14.698096]},"properties":{"name":"Magnolia St. Community Pantry"}},{"type":"Feature","geometry":{"type":"Point","coordinates":[120.9533,14.339194]},"properties":{"name":"San Dionisio Community Pantry ( Dasmariñas Community Pantry)"}},{"type":"Feature","geometry":{"type":"Point","coordinates":[121.136248,14.152397]},"properties":{"name":"Makiling Community Pantry"}},{"type":"Feature","geometry":{"type":"Point","coordinates":[123.372291,13.404631]},"properties":{"name":"San Nicolas Community Pantry"}},{"type":"Feature","geometry":{"type":"Point","coordinates":[124.240514,8.240499]},"properties":{"name":"Iligan Community Pantry (Tibanga)"}},{"type":"Feature","geometry":{"type":"Point","coordinates":[121.075964,14.550771]},"properties":{"name":"East Mansion Community Pantry"}},{"type":"Feature","geometry":{"type":"Point","coordinates":[121.144192,14.577958]},"properties":{"name":"Balagot 1 Community Pantry"}},{"type":"Feature","geometry":{"type":"Point","coordinates":[121.133174,14.569146]},"properties":{"name":"Naval Community Pantry"}},{"type":"Feature","geometry":{"type":"Point","coordinates":[121.055622,14.668298]},"properties":{"name":"Culiat Community Pantry (New Location)"}},{"type":"Feature","geometry":{"type":"Point","coordinates":[121.039314,14.716806]},"properties":{"name":"Gulod Community Pantry Novaliches, Quezon City"}},{"type":"Feature","geometry":{"type":"Point","coordinates":[121.023304,14.729672]},"properties":{"name":"DGHS Community Pantry"}},{"type":"Feature","geometry":{"type":"Point","coordinates":[120.99925,14.622711]},"properties":{"name":"Sta Teresita Pantry"}},{"type":"Feature","geometry":{"type":"Point","coordinates":[121.562401,15.758358]},"properties":{"name":"Baler Community Pantry"}},{"type":"Feature","geometry":{"type":"Point","coordinates":[119.390132,11.178184]},"properties":{"name":"El Nido Community Pantry (Rizal St)"}},{"type":"Feature","geometry":{"type":"Point","coordinates":[120.592655,16.40846]},"properties":{"name":"Legarda Community Pantry"}},{"type":"Feature","geometry":{"type":"Point","coordinates":[120.586251,16.4221]},"properties":{"name":"Guisad Community Pantry"}},{"type":"Feature","geometry":{"type":"Point","coordinates":[121.140079,14.56859]},"properties":{"name":"Bukal Dos Community Pantry"}},{"type":"Feature","geometry":{"type":"Point","coordinates":[120.90338,14.131902]},"properties":{"name":"Mendez Cavite Community Pantry"}},{"type":"Feature","geometry":{"type":"Point","coordinates":[120.769358,15.094036]},"properties":{"name":"HCC Caritas Pantry"}},{"type":"Feature","geometry":{"type":"Point","coordinates":[121.104674,14.31]},"properties":{"name":"Santa Rosa Community Pantry (Brgy Labas)"}},{"type":"Feature","geometry":{"type":"Point","coordinates":[120.920222,13.882211]},"properties":{"name":"Caysasay Shrine Community Pantry"}},{"type":"Feature","geometry":{"type":"Point","coordinates":[125.091437,7.007426]},"properties":{"name":"Kidapawan Community Pantry"}},{"type":"Feature","geometry":{"type":"Point","coordinates":[120.996902,14.638031]},"properties":{"name":"Del Monte Avenue - Manresa Community Pantry "}},{"type":"Feature","geometry":{"type":"Point","coordinates":[121.014811,14.577063]},"properties":{"name":"BRGY. KASILAWAN MAKATI COMMUNITY PANTRY"}},{"type":"Feature","geometry":{"type":"Point","coordinates":[121.089385,14.62225]},"properties":{"name":"Kalumpang Elementary School"}},{"type":"Feature","geometry":{"type":"Point","coordinates":[121.163389,14.016567]},"properties":{"name":"Malvar Community Pantry - LBN Malvar"}},{"type":"Feature","geometry":{"type":"Point","coordinates":[120.427199,15.826295]},"properties":{"name":"Ligue Community Pantry"}},{"type":"Feature","geometry":{"type":"Point","coordinates":[121.051776,14.705835]},"properties":{"name":"BANKER'S COMMUNITY PANTRY"}},{"type":"Feature","geometry":{"type":"Point","coordinates":[121.133419,14.638504]},"properties":{"name":"Panorama Hills Community Pantry"}},{"type":"Feature","geometry":{"type":"Point","coordinates":[120.531348,14.678145]},"properties":{"name":"Balanga Community Pantry near BGH (Bataan General Hospital) exit"}},{"type":"Feature","geometry":{"type":"Point","coordinates":[121.09554,14.70922]},"properties":{"name":"Payatas Community Pantry"}},{"type":"Feature","geometry":{"type":"Point","coordinates":[121.039912,14.485341]},"properties":{"name":"For Our Delivery Riders"}},{"type":"Feature","geometry":{"type":"Point","coordinates":[121.395849,13.828407]},"properties":{"name":"BEC Community Pantry"}},{"type":"Feature","geometry":{"type":"Point","coordinates":[121.059073,14.667491]},"properties":{"name":"SALAM COMPOUND COMMUNITY PANTRY "}},{"type":"Feature","geometry":{"type":"Point","coordinates":[123.190841,13.634173]},"properties":{"name":"Minds that Matter Community Pantry"}},{"type":"Feature","geometry":{"type":"Point","coordinates":[121.043819,14.77528]},"properties":{"name":"Phase 4 Bagong Silang Community Pantry"}},{"type":"Feature","geometry":{"type":"Point","coordinates":[121.022151,14.641357]},"properties":{"name":"Community Pantry in your Area! "}},{"type":"Feature","geometry":{"type":"Point","coordinates":[121.020246,14.668113]},"properties":{"name":"Shorthorn Community Pantry"}},{"type":"Feature","geometry":{"type":"Point","coordinates":[121.222902,14.479928]},"properties":{"name":"Cardona Community Pantry"}},{"type":"Feature","geometry":{"type":"Point","coordinates":[121.458951,14.305728]},"properties":{"name":"Lumban Community Pantry"}},{"type":"Feature","geometry":{"type":"Point","coordinates":[121.072281,14.550106]},"properties":{"name":"Santa Rosa Community Pantry"}},{"type":"Feature","geometry":{"type":"Point","coordinates":[123.741406,13.138772]},"properties":{"name":"St. Agnes Academy "}},{"type":"Feature","geometry":{"type":"Point","coordinates":[123.777221,13.236101]},"properties":{"name":"Sto. Domingo Community Pantry"}},{"type":"Feature","geometry":{"type":"Point","coordinates":[121.009018,14.643313]},"properties":{"name":"Masambong Community Pantry"}},{"type":"Feature","geometry":{"type":"Point","coordinates":[121.135961,14.570417]},"properties":{"name":"Costalina Street Community Pantry"}},{"type":"Feature","geometry":{"type":"Point","coordinates":[121.133952,14.567978]},"properties":{"name":"Sinagtala Community Pantry"}},{"type":"Feature","geometry":{"type":"Point","coordinates":[121.515409,18.408381]},"properties":{"name":"Community Pantry by Rotaract Club of Tuguegarao"}},{"type":"Feature","geometry":{"type":"Point","coordinates":[121.071232,14.684857]},"properties":{"name":"Purok Uno General Street Community Pantry"}},{"type":"Feature","geometry":{"type":"Point","coordinates":[121.765569,16.931825]},"properties":{"name":"Cauayan Community Pantry - Canciller"}},{"type":"Feature","geometry":{"type":"Point","coordinates":[120.959203,14.733265]},"properties":{"name":"Calvario Community Pantry"}},{"type":"Feature","geometry":{"type":"Point","coordinates":[121.042997,14.515108]},"properties":{"name":"Centennial Community Pantry"}},{"type":"Feature","geometry":{"type":"Point","coordinates":[123.862419,9.63999]},"properties":{"name":"Poblacion 3 Community Pantry"}},{"type":"Feature","geometry":{"type":"Point","coordinates":[121.169212,14.622316]},"properties":{"name":"ALAY-KAPWA sa SITIO SIKARA"}},{"type":"Feature","geometry":{"type":"Point","coordinates":[121.097445,14.622691]},"properties":{"name":"Bayanihan ng Kabataan San Roque Marikina Community Pantry (Diego SIlang Community Pantry)"}},{"type":"Feature","geometry":{"type":"Point","coordinates":[121.123841,14.62905]},"properties":{"name":"Masinag Community Pantry"}},{"type":"Feature","geometry":{"type":"Point","coordinates":[121.12362,14.546331]},"properties":{"name":"Sitio Lambak Community Pantry"}},{"type":"Feature","geometry":{"type":"Point","coordinates":[121.056663,14.854096]},"properties":{"name":"Sapang Palay Community Pantry"}},{"type":"Feature","geometry":{"type":"Point","coordinates":[121.050157,14.661318]},"properties":{"name":"Arboretum Community Pantry"}},{"type":"Feature","geometry":{"type":"Point","coordinates":[121.12519,14.587059]},"properties":{"name":"Brookside Gate 3 "}},{"type":"Feature","geometry":{"type":"Point","coordinates":[125.609651,7.058373]},"properties":{"name":"Bucana Community Pantry"}},{"type":"Feature","geometry":{"type":"Point","coordinates":[124.385803,11.048034]},"properties":{"name":"PANAG-AMBITAY COMMUNITY PANTRY (COMMUNITY BOOKSTORE - PALOMPON)"}},{"type":"Feature","geometry":{"type":"Point","coordinates":[121.033346,14.588129]},"properties":{"name":"Pinagtipunan Community Pantry"}},{"type":"Feature","geometry":{"type":"Point","coordinates":[121.117007,14.640527]},"properties":{"name":"Rainbow Street Community Pantry "}},{"type":"Feature","geometry":{"type":"Point","coordinates":[120.95331,14.715884]},"properties":{"name":"Valenzuela Community Pantry (Malanday)"}},{"type":"Feature","geometry":{"type":"Point","coordinates":[121.077785,14.566031]},"properties":{"name":"Sagad Community Pantry"}},{"type":"Feature","geometry":{"type":"Point","coordinates":[121.034919,14.329776]},"properties":{"name":"Community LODI Inang Pantry"}},{"type":"Feature","geometry":{"type":"Point","coordinates":[120.947953,14.704684]},"properties":{"name":"Palasan - Zone 2 (danny & nene's) Community Pantry "}},{"type":"Feature","geometry":{"type":"Point","coordinates":[121.126214,14.568875]},"properties":{"name":"Ilang-ilang Community Pantry"}},{"type":"Feature","geometry":{"type":"Point","coordinates":[120.591586,16.413619]},"properties":{"name":"Bayanihan Cordillera Community Pantry/Kitchen"}},{"type":"Feature","geometry":{"type":"Point","coordinates":[121.084693,14.680192]},"properties":{"name":"Commonwealth QC Community Pantry"}},{"type":"Feature","geometry":{"type":"Point","coordinates":[121.121607,14.637486]},"properties":{"name":"Lilac Community Pantry"}},{"type":"Feature","geometry":{"type":"Point","coordinates":[120.948175,15.31522]},"properties":{"name":"GAPAN COMMUNITY PANTRY"}},{"type":"Feature","geometry":{"type":"Point","coordinates":[120.988018,14.577273]},"properties":{"name":"Taft Community Pantry"}},{"type":"Feature","geometry":{"type":"Point","coordinates":[120.976185,14.419911]},"properties":{"name":"MOLINO 1 Community Pantry"}},{"type":"Feature","geometry":{"type":"Point","coordinates":[120.989521,14.674367]},"properties":{"name":"San Miguel Heights Community Pantry"}},{"type":"Feature","geometry":{"type":"Point","coordinates":[120.769262,14.922423]},"properties":{"name":"Gatbuca Community Pantry"}},{"type":"Feature","geometry":{"type":"Point","coordinates":[121.726202,17.627139]},"properties":{"name":"ZONE 7, CENTRO 12 COMMUNITY PANTRY"}},{"type":"Feature","geometry":{"type":"Point","coordinates":[120.999935,14.706068]},"properties":{"name":"Community Pantry by Araw Theatre Ensemble, Inc"}},{"type":"Feature","geometry":{"type":"Point","coordinates":[121.008579,14.620986]},"properties":{"name":"Community Pantry at Barangay Doña Josefa, Quezon City"}},{"type":"Feature","geometry":{"type":"Point","coordinates":[121.005473,14.618159]},"properties":{"name":"Community Pantry at Barangay Doña Josefa, Quezon City"}},{"type":"Feature","geometry":{"type":"Point","coordinates":[121.447723,14.414446]},"properties":{"name":"Community Pantry for Education"}},{"type":"Feature","geometry":{"type":"Point","coordinates":[121.094303,14.561486]},"properties":{"name":"Greenwoods Community Pantry"}},{"type":"Feature","geometry":{"type":"Point","coordinates":[125.494745,7.030716]},"properties":{"name":"Blessing and Hope Community apnatry"}},{"type":"Feature","geometry":{"type":"Point","coordinates":[121.148918,14.65729]},"properties":{"name":"Phase4A Tierra Monte Silangan San Mateo Rizal pantry "}},{"type":"Feature","geometry":{"type":"Point","coordinates":[120.734832,13.933857]},"properties":{"name":"Balayan, Brgy. 10 Community Pantry"}},{"type":"Feature","geometry":{"type":"Point","coordinates":[120.631578,14.066963]},"properties":{"name":"F. Castro St. Community Pantry"}},{"type":"Feature","geometry":{"type":"Point","coordinates":[125.518889,8.943099]},"properties":{"name":"Mitsubishi Community Pantry"}},{"type":"Feature","geometry":{"type":"Point","coordinates":[121.163789,14.212607]},"properties":{"name":"Calamba Bayan Community Pantry"}},{"type":"Feature","geometry":{"type":"Point","coordinates":[120.632485,14.071379]},"properties":{"name":"F. Alix Community Pantry"}},{"type":"Feature","geometry":{"type":"Point","coordinates":[121.118967,14.62166]},"properties":{"name":"Kingsville Community Pantry"}},{"type":"Feature","geometry":{"type":"Point","coordinates":[120.887632,14.385218]},"properties":{"name":"Strays Community Pantry"}},{"type":"Feature","geometry":{"type":"Point","coordinates":[120.888735,14.382821]},"properties":{"name":"NAVARRO COMMUNITY PANTRY"}},{"type":"Feature","geometry":{"type":"Point","coordinates":[121.052831,14.641294]},"properties":{"name":"Matiyaga Community Pantry"}},{"type":"Feature","geometry":{"type":"Point","coordinates":[121.057796,14.84858]},"properties":{"name":"Purok 5 Community Pantry"}},{"type":"Feature","geometry":{"type":"Point","coordinates":[121.056526,14.554571]},"properties":{"name":"PEMBO COMMUNITY PANTRY "}},{"type":"Feature","geometry":{"type":"Point","coordinates":[120.998943,14.885289]},"properties":{"name":"cityland community pantry"}},{"type":"Feature","geometry":{"type":"Point","coordinates":[121.77433,17.431579]},"properties":{"name":"Brgy. Ugad Cabagan Isabela Community Pantry"}},{"type":"Feature","geometry":{"type":"Point","coordinates":[120.323917,16.661624]},"properties":{"name":"Urbiztondo Community Pantry"}},{"type":"Feature","geometry":{"type":"Point","coordinates":[121.007999,14.602269]},"properties":{"name":"Bgy.426 Dist. 4 Zone 43 Community Pantry"}},{"type":"Feature","geometry":{"type":"Point","coordinates":[121.066327,14.569491]},"properties":{"name":"Bagong Ilog Community Pantry (Lumiere Residences)"}},{"type":"Feature","geometry":{"type":"Point","coordinates":[121.156425,16.486287]},"properties":{"name":"Bayombong Community Pantry"}},{"type":"Feature","geometry":{"type":"Point","coordinates":[125.004876,11.23839]},"properties":{"name":"Tacloban Community Pantry"}},{"type":"Feature","geometry":{"type":"Point","coordinates":[120.987451,14.574946]},"properties":{"name":"Ermita-Malate Community Pantry "}},{"type":"Feature","geometry":{"type":"Point","coordinates":[120.974213,14.689769]},"properties":{"name":"Karuhatan Community Pantry"}},{"type":"Feature","geometry":{"type":"Point","coordinates":[120.538312,14.685208]},"properties":{"name":"Isaac & Catalina Medical Center Community Pantry"}},{"type":"Feature","geometry":{"type":"Point","coordinates":[121.008369,14.790767]},"properties":{"name":"Ina ng Awa Community Pantry"}},{"type":"Feature","geometry":{"type":"Point","coordinates":[121.146027,14.562592]},"properties":{"name":"Golden City Community Pantry"}},{"type":"Feature","geometry":{"type":"Point","coordinates":[121.051431,14.686313]},"properties":{"name":"Zytek Community Pantry"}},{"type":"Feature","geometry":{"type":"Point","coordinates":[121.128135,14.571448]},"properties":{"name":"Kiss St. Community Pantry"}},{"type":"Feature","geometry":{"type":"Point","coordinates":[125.47554,7.065051]},"properties":{"name":"Mulig Community Pantry"}},{"type":"Feature","geometry":{"type":"Point","coordinates":[120.981022,14.741776]},"properties":{"name":"Bodega ng Awa ni San Jose ang Mangagawa"}},{"type":"Feature","geometry":{"type":"Point","coordinates":[121.129835,14.57141]},"properties":{"name":"Trendy Kicks Community Pantry"}},{"type":"Feature","geometry":{"type":"Point","coordinates":[121.044772,14.385655]},"properties":{"name":"Tunasan Community Pantry"}},{"type":"Feature","geometry":{"type":"Point","coordinates":[120.578851,15.149431]},"properties":{"name":"HOPE COMMUNITY PANTRY"}},{"type":"Feature","geometry":{"type":"Point","coordinates":[121.027614,14.62993]},"properties":{"name":"Laging Handang Tumulong Community Pantry"}},{"type":"Feature","geometry":{"type":"Point","coordinates":[120.936123,14.328982]},"properties":{"name":"Zone 4, Dasmarinas City"}},{"type":"Feature","geometry":{"type":"Point","coordinates":[121.066697,14.647702]},"properties":{"name":"Area 17 Community Pantry"}},{"type":"Feature","geometry":{"type":"Point","coordinates":[121.023698,14.632108]},"properties":{"name":"Missionary Sisters of Sacro Costato Community Pantry"}},{"type":"Feature","geometry":{"type":"Point","coordinates":[121.069835,14.663681]},"properties":{"name":"Onwheels Community Pantry QC"}},{"type":"Feature","geometry":{"type":"Point","coordinates":[123.496496,10.837768]},"properties":{"name":"Escalante City Community Pantry"}},{"type":"Feature","geometry":{"type":"Point","coordinates":[124.992942,11.221247]},"properties":{"name":"St. Jose Maria Escriva Mission Station"}},{"type":"Feature","geometry":{"type":"Point","coordinates":[120.97513,14.772217]},"properties":{"name":"Lambakin Community Pantry"}},{"type":"Feature","geometry":{"type":"Point","coordinates":[120.940811,14.410585]},"properties":{"name":"Imus Community Pantry"}},{"type":"Feature","geometry":{"type":"Point","coordinates":[121.134177,14.57266]},"properties":{"name":"Jasmin Community Pantry "}},{"type":"Feature","geometry":{"type":"Point","coordinates":[121.148985,14.198988]},"properties":{"name":"Real Calamba Community Pantry"}},{"type":"Feature","geometry":{"type":"Point","coordinates":[121.989499,12.379934]},"properties":{"name":"BROTHER'S KEEPER COMMUNITY PANTRY"}},{"type":"Feature","geometry":{"type":"Point","coordinates":[121.056842,14.50832]},"properties":{"name":"Taguig City Community Pantry (Central Signal)"}},{"type":"Feature","geometry":{"type":"Point","coordinates":[121.062987,12.35283]},"properties":{"name":"San Jose Mindoro Community Pantry"}},{"type":"Feature","geometry":{"type":"Point","coordinates":[120.456085,14.751268]},"properties":{"name":"Purok 1 Palili Community Pantry"}},{"type":"Feature","geometry":{"type":"Point","coordinates":[120.594984,14.562604]},"properties":{"name":"Landing Community Pantry"}},{"type":"Feature","geometry":{"type":"Point","coordinates":[121.07587,14.545522]},"properties":{"name":"CMPJ Community Pantry"}},{"type":"Feature","geometry":{"type":"Point","coordinates":[121.002873,14.51219]},"properties":{"name":"PILDERA COMMUNITY KITCHEN"}},{"type":"Feature","geometry":{"type":"Point","coordinates":[121.033266,14.638597]},"properties":{"name":"Mother Ignacia Community Pantry"}},{"type":"Feature","geometry":{"type":"Point","coordinates":[121.107954,14.544859]},"properties":{"name":"San Lorenzo Ruiz Community Pantry"}},{"type":"Feature","geometry":{"type":"Point","coordinates":[125.597141,7.075161]},"properties":{"name":"Madapo Community Pantry"}},{"type":"Feature","geometry":{"type":"Point","coordinates":[121.012851,14.542857]},"properties":{"name":"Bangkal Community Pantry"}},{"type":"Feature","geometry":{"type":"Point","coordinates":[120.948499,14.757794]},"properties":{"name":"Marilao Community Pantry"}},{"type":"Feature","geometry":{"type":"Point","coordinates":[121.139812,14.551479]},"properties":{"name":"Cresdaville 1 Community Pantry"}},{"type":"Feature","geometry":{"type":"Point","coordinates":[121.13293,14.569984]},"properties":{"name":"A.M De Leon (Salazar) Street Community Pantry"}},{"type":"Feature","geometry":{"type":"Point","coordinates":[120.996928,14.658783]},"properties":{"name":"BRGY. 138 COMMUNITY PANTRY"}},{"type":"Feature","geometry":{"type":"Point","coordinates":[120.598962,16.40526]},"properties":{"name":"UP BAGUIO COMMUNITY PANTRY"}},{"type":"Feature","geometry":{"type":"Point","coordinates":[120.650811,14.039883]},"properties":{"name":"G Limjoco Community Pantry "}},{"type":"Feature","geometry":{"type":"Point","coordinates":[121.121746,14.662593]},"properties":{"name":"BONANZA COMMUNITY PANTRY"}},{"type":"Feature","geometry":{"type":"Point","coordinates":[121.129702,14.538907]},"properties":{"name":"Sunrise Community Pantry"}},{"type":"Feature","geometry":{"type":"Point","coordinates":[120.331199,16.033914]},"properties":{"name":"Brgy. Tapuac Community Pantry"}},{"type":"Feature","geometry":{"type":"Point","coordinates":[123.70252,13.160516]},"properties":{"name":"Paragon Pantry Project"}},{"type":"Feature","geometry":{"type":"Point","coordinates":[121.490968,13.03382]},"properties":{"name":"Pinamalayan Community Pantry"}},{"type":"Feature","geometry":{"type":"Point","coordinates":[121.739035,17.719256]},"properties":{"name":"Malabbac Community Pantry"}},{"type":"Feature","geometry":{"type":"Point","coordinates":[121.111317,14.558071]},"properties":{"name":"Planters Floodway Community Pantry"}},{"type":"Feature","geometry":{"type":"Point","coordinates":[120.961972,14.228812]},"properties":{"name":"Riviera Community Pantry"}},{"type":"Feature","geometry":{"type":"Point","coordinates":[123.631854,12.360907]},"properties":{"name":"Masbate City Community Pantry"}},{"type":"Feature","geometry":{"type":"Point","coordinates":[125.006156,11.248101]},"properties":{"name":"Tacloban Community Pantry"}},{"type":"Feature","geometry":{"type":"Point","coordinates":[121.041102,14.511072]},"properties":{"name":"Makabuhay Community Pantry-Pawtry"}},{"type":"Feature","geometry":{"type":"Point","coordinates":[120.988758,14.660948]},"properties":{"name":"CRJM Basket ng MBS"}},{"type":"Feature","geometry":{"type":"Point","coordinates":[120.962154,14.750546]},"properties":{"name":"MEYCAUAYAN COMMUNITY PANTRY"}},{"type":"Feature","geometry":{"type":"Point","coordinates":[121.051659,14.366118]},"properties":{"name":"RLCC San Pedro Community Pantry"}},{"type":"Feature","geometry":{"type":"Point","coordinates":[119.980525,15.325817]},"properties":{"name":"IBA COMMUNITY PANTRY"}},{"type":"Feature","geometry":{"type":"Point","coordinates":[120.979997,14.724376]},"properties":{"name":"ASSUMPTION VILLE COMMUNITY PANTRY"}},{"type":"Feature","geometry":{"type":"Point","coordinates":[121.105693,14.663554]},"properties":{"name":"Fairlane Community Pantry"}},{"type":"Feature","geometry":{"type":"Point","coordinates":[121.476037,13.041714]},"properties":{"name":"Santa Rita Community Pantry"}},{"type":"Feature","geometry":{"type":"Point","coordinates":[121.039614,14.676982]},"properties":{"name":"Santuario San Vicente de Paul"}},{"type":"Feature","geometry":{"type":"Point","coordinates":[121.541334,12.680491]},"properties":{"name":"Happy Village Community Pantry"}},{"type":"Feature","geometry":{"type":"Point","coordinates":[121.152935,14.585176]},"properties":{"name":"Melendrez Community Pantry"}},{"type":"Feature","geometry":{"type":"Point","coordinates":[120.976313,14.699572]},"properties":{"name":"Tara sa Expo community Pantry"}},{"type":"Feature","geometry":{"type":"Point","coordinates":[121.145785,14.545171]},"properties":{"name":"MUZON Community Pantry"}},{"type":"Feature","geometry":{"type":"Point","coordinates":[121.127183,14.57165]},"properties":{"name":"Tancinco Community Pantry"}},{"type":"Feature","geometry":{"type":"Point","coordinates":[120.956541,14.349707]},"properties":{"name":"KAHAYAG COMMUNITY PANTRY"}},{"type":"Feature","geometry":{"type":"Point","coordinates":[121.547542,16.684617]},"properties":{"name":"Santiago City Community Pantry"}},{"type":"Feature","geometry":{"type":"Point","coordinates":[121.134904,14.562501]},"properties":{"name":"Bagong Sibol Community Pantry"}},{"type":"Feature","geometry":{"type":"Point","coordinates":[122.362905,11.709123]},"properties":{"name":"Kalibo Community Pantry"}},{"type":"Feature","geometry":{"type":"Point","coordinates":[120.718932,14.910989]},"properties":{"name":"Shell Macabebe"}},{"type":"Feature","geometry":{"type":"Point","coordinates":[120.949382,14.109441]},"properties":{"name":"St. Scholastica’s Formation House Community Pantry"}},{"type":"Feature","geometry":{"type":"Point","coordinates":[121.050102,14.607656]},"properties":{"name":"2nd West Community Pantry"}},{"type":"Feature","geometry":{"type":"Point","coordinates":[121.050331,14.644062]},"properties":{"name":"Matatag Community Pantry"}},{"type":"Feature","geometry":{"type":"Point","coordinates":[121.125367,14.563274]},"properties":{"name":"Dupax 1 Community Pantry"}},{"type":"Feature","geometry":{"type":"Point","coordinates":[121.063583,14.553533]},"properties":{"name":"East Rembo Community Pantry"}},{"type":"Feature","geometry":{"type":"Point","coordinates":[120.524653,15.286827]},"properties":{"name":"Bamban Community Pantry"}},{"type":"Feature","geometry":{"type":"Point","coordinates":[121.04325,14.566166]},"properties":{"name":"NSDG Community Pantry"}},{"type":"Feature","geometry":{"type":"Point","coordinates":[124.608815,11.00716]},"properties":{"name":"Ormoc City Community Pantry"}},{"type":"Feature","geometry":{"type":"Point","coordinates":[121.07013,13.791837]},"properties":{"name":"Batangas Community Pantry"}},{"type":"Feature","geometry":{"type":"Point","coordinates":[120.674123,15.043154]},"properties":{"name":"Metrobean Coffee Community Pantry"}},{"type":"Feature","geometry":{"type":"Point","coordinates":[120.540353,14.679222]},"properties":{"name":"St Joseph Cathedral Community Pantry"}},{"type":"Feature","geometry":{"type":"Point","coordinates":[120.872172,14.322636]},"properties":{"name":"Tienda Elena Community Pantry"}},{"type":"Feature","geometry":{"type":"Point","coordinates":[121.05812,14.343245]},"properties":{"name":"Community Pantry ng Pacita"}},{"type":"Feature","geometry":{"type":"Point","coordinates":[125.000624,11.241462]},"properties":{"name":"Divine Word Hospital (DWH) Community Pantry"}},{"type":"Feature","geometry":{"type":"Point","coordinates":[121.059156,14.33398]},"properties":{"name":"Brgy. San Francisco Community Pantry"}},{"type":"Feature","geometry":{"type":"Point","coordinates":[120.995573,14.563961]},"properties":{"name":"St. Scho Community Pantry"}},{"type":"Feature","geometry":{"type":"Point","coordinates":[121.018224,14.502412]},"properties":{"name":"Moonwalk/Merville Community Pantry"}},{"type":"Feature","geometry":{"type":"Point","coordinates":[121.142254,14.550334]},"properties":{"name":"AP Gonzaga Community Pantry"}},{"type":"Feature","geometry":{"type":"Point","coordinates":[121.136477,14.571697]},"properties":{"name":"L. Wood Community Pantry"}},{"type":"Feature","geometry":{"type":"Point","coordinates":[121.016778,14.56646]},"properties":{"name":"Ecoville Community Pantry"}},{"type":"Feature","geometry":{"type":"Point","coordinates":[121.113009,14.531699]},"properties":{"name":"Sakbit Community Pantry"}},{"type":"Feature","geometry":{"type":"Point","coordinates":[120.596979,16.412677]},"properties":{"name":"Session Road Community Pantry"}},{"type":"Feature","geometry":{"type":"Point","coordinates":[121.075111,14.659497]},"properties":{"name":"UP CAMPUS COMMUNITY PANTRY"}},{"type":"Feature","geometry":{"type":"Point","coordinates":[120.592626,16.40846]},"properties":{"name":"Legarda Community Pantry"}},{"type":"Feature","geometry":{"type":"Point","coordinates":[114.285386,11.05269]},"properties":{"name":"Pag-asa Island Community Kitchen (See disclaimer on More information)"}},{"type":"Feature","geometry":{"type":"Point","coordinates":[121.027608,14.789666]},"properties":{"name":"Harmony Hills Muzon Community Pantry"}},{"type":"Feature","geometry":{"type":"Point","coordinates":[120.650545,15.092318]},"properties":{"name":"KINDNESS STATIONS FOOD PANTRY"}},{"type":"Feature","geometry":{"type":"Point","coordinates":[121.149189,14.549976]},"properties":{"name":"Purok 17 Upper Javier Community Pantry"}},{"type":"Feature","geometry":{"type":"Point","coordinates":[121.121084,16.800291]},"properties":{"name":"Ifugao Good Samaritan Pantry"}},{"type":"Feature","geometry":{"type":"Point","coordinates":[120.969599,14.642309]},"properties":{"name":"Tuna Community Pantry"}},{"type":"Feature","geometry":{"type":"Point","coordinates":[118.745537,9.744432]},"properties":{"name":"Puerto Princesa Community Pantry (Brgy. San Miguel)"}},{"type":"Feature","geometry":{"type":"Point","coordinates":[120.987225,14.446899]},"properties":{"name":"Las Piñas Community Pantry "}},{"type":"Feature","geometry":{"type":"Point","coordinates":[123.201188,13.706231]},"properties":{"name":"Sta. Salud Community Pantry"}},{"type":"Feature","geometry":{"type":"Point","coordinates":[121.078729,14.843017]},"properties":{"name":"Bayanihan sa minuyan"}},{"type":"Feature","geometry":{"type":"Point","coordinates":[123.367804,13.451999]},"properties":{"name":"BAAO MOBILE COMMUNITY PANTRY"}},{"type":"Feature","geometry":{"type":"Point","coordinates":[121.162537,13.970048]},"properties":{"name":"Lipa Community Pantry - Lucia's Cafe"}},{"type":"Feature","geometry":{"type":"Point","coordinates":[121.191478,14.46493]},"properties":{"name":"Binangonan Community Pantry"}},{"type":"Feature","geometry":{"type":"Point","coordinates":[120.848703,14.34543]},"properties":{"name":"Bagtas Community Pantry"}},{"type":"Feature","geometry":{"type":"Point","coordinates":[121.111341,14.313985]},"properties":{"name":"Santa Rosa Community Pantry"}},{"type":"Feature","geometry":{"type":"Point","coordinates":[121.066112,14.691847]},"properties":{"name":"Nanays Community Pantry"}},{"type":"Feature","geometry":{"type":"Point","coordinates":[120.916694,14.418793]},"properties":{"name":"Imus Community Pantry (Brgy. Alapan I-A)"}},{"type":"Feature","geometry":{"type":"Point","coordinates":[120.28291,14.826917]},"properties":{"name":"Olongapo Youth Community Pantry"}},{"type":"Feature","geometry":{"type":"Point","coordinates":[121.720773,17.635098]},"properties":{"name":"Community Pantry by Rotaract Club of Tuguegarao"}},{"type":"Feature","geometry":{"type":"Point","coordinates":[120.948888,14.670306]},"properties":{"name":"Gov. Pascual Baritan Malabon Community Pantry"}},{"type":"Feature","geometry":{"type":"Point","coordinates":[120.93655,14.709812]},"properties":{"name":"Obando, Bulacan Community Pantry"}},{"type":"Feature","geometry":{"type":"Point","coordinates":[121.051181,14.604378]},"properties":{"name":"West Crame, San Juan City Community Pantry"}},{"type":"Feature","geometry":{"type":"Point","coordinates":[121.099316,14.207854]},"properties":{"name":"Kapayapaan Community Pantry"}},{"type":"Feature","geometry":{"type":"Point","coordinates":[120.647247,15.089941]},"properties":{"name":"Fiesta Calulut Community Pantry"}},{"type":"Feature","geometry":{"type":"Point","coordinates":[121.360557,14.534967]},"properties":{"name":"Triskelion Mobile Sharing Table"}},{"type":"Feature","geometry":{"type":"Point","coordinates":[121.741648,17.575139]},"properties":{"name":"Eastern Enrile Community Pantry"}},{"type":"Feature","geometry":{"type":"Point","coordinates":[125.494103,9.790118]},"properties":{"name":"Surigaonon Community Pantry"}},{"type":"Feature","geometry":{"type":"Point","coordinates":[120.987102,14.612212]},"properties":{"name":"Heaven's Touch Cuisine: HT Food Drive - Asturias Community Pantry"}},{"type":"Feature","geometry":{"type":"Point","coordinates":[120.932927,14.359837]},"properties":{"name":"Golden City Imus Community Pantry"}},{"type":"Feature","geometry":{"type":"Point","coordinates":[120.999341,14.603677]},"properties":{"name":"417 Community Pantry"}},{"type":"Feature","geometry":{"type":"Point","coordinates":[121.124846,14.590883]},"properties":{"name":"Brookside Community Pantry for Lactating Mothers"}},{"type":"Feature","geometry":{"type":"Point","coordinates":[121.008971,14.586814]},"properties":{"name":"Organisasyon Community Pantry"}},{"type":"Feature","geometry":{"type":"Point","coordinates":[120.985589,14.320596]},"properties":{"name":"Kamay ng Kasaganahan: Walang Maaaksaya sa Biyayang Ibinigay "}},{"type":"Feature","geometry":{"type":"Point","coordinates":[121.109705,14.307239]},"properties":{"name":"Brgy. Labas Community Pantry"}},{"type":"Feature","geometry":{"type":"Point","coordinates":[120.615069,14.998356]},"properties":{"name":"Apung Dita's Community Pantry"}},{"type":"Feature","geometry":{"type":"Point","coordinates":[121.445081,17.412287]},"properties":{"name":"Kalinga Community Pantry"}},{"type":"Feature","geometry":{"type":"Point","coordinates":[120.952062,14.658545]},"properties":{"name":"SJA (St. James Academy, Malabon) Community Pantry"}},{"type":"Feature","geometry":{"type":"Point","coordinates":[125.619313,7.077133]},"properties":{"name":"Workers'community pantry - sobrecary sales st.,davao city"}},{"type":"Feature","geometry":{"type":"Point","coordinates":[120.990629,14.495124]},"properties":{"name":"San dionisio Community Pantry cor Capistrano Tramo"}},{"type":"Feature","geometry":{"type":"Point","coordinates":[121.039797,14.476768]},"properties":{"name":"Barangay Meralco Green Community Pantry"}},{"type":"Feature","geometry":{"type":"Point","coordinates":[121.060827,14.513071]},"properties":{"name":"North Signal Village Community Pantry"}},{"type":"Feature","geometry":{"type":"Point","coordinates":[121.097278,14.627343]},"properties":{"name":"San Roque Community Pantry"}},{"type":"Feature","geometry":{"type":"Point","coordinates":[120.708525,14.988784]},"properties":{"name":"Community Pantry ng Santo Tomas"}},{"type":"Feature","geometry":{"type":"Point","coordinates":[120.969819,14.644688]},"properties":{"name":"Dagat-dagatan community pantry"}},{"type":"Feature","geometry":{"type":"Point","coordinates":[120.978688,14.462979]},"properties":{"name":"Community Pantry in Saint Joseph, Almanza Uno Las Piñas"}},{"type":"Feature","geometry":{"type":"Point","coordinates":[121.078273,14.70495]},"properties":{"name":"North Commonwealth Community Pantry"}},{"type":"Feature","geometry":{"type":"Point","coordinates":[121.096331,14.62346]},"properties":{"name":"Bayanihan ng Kabataan San Roque Marikina Community Pantry "}},{"type":"Feature","geometry":{"type":"Point","coordinates":[121.134428,14.58532]},"properties":{"name":"Janssenville Community Pantry"}},{"type":"Feature","geometry":{"type":"Point","coordinates":[121.19739,14.472697]},"properties":{"name":"Tugon Riscian Community Pantry"}},{"type":"Feature","geometry":{"type":"Point","coordinates":[121.068993,14.800443]},"properties":{"name":"Dalisay Community Pantry"}},{"type":"Feature","geometry":{"type":"Point","coordinates":[121.160563,14.597268]},"properties":{"name":"PIHM Community Pantry"}},{"type":"Feature","geometry":{"type":"Point","coordinates":[120.8133,14.849649]},"properties":{"name":"Catmon Community Pantry"}},{"type":"Feature","geometry":{"type":"Point","coordinates":[120.05538,15.15899]},"properties":{"name":"Cabangan Community Pantry"}},{"type":"Feature","geometry":{"type":"Point","coordinates":[120.484704,14.435395]},"properties":{"name":"San Nikolas Community Pantry"}},{"type":"Feature","geometry":{"type":"Point","coordinates":[120.962658,14.673582]},"properties":{"name":"Mother Earth Foundation and JuanaZero Plastic-Free Community Pantry"}},{"type":"Feature","geometry":{"type":"Point","coordinates":[120.97417,14.240704]},"properties":{"name":"Metrogate Silang Estate"}},{"type":"Feature","geometry":{"type":"Point","coordinates":[121.135852,14.571384]},"properties":{"name":"Magandang Lahi Community Pantry"}},{"type":"Feature","geometry":{"type":"Point","coordinates":[121.15053,14.550438]},"properties":{"name":"Sitio Isang Lahi Community Pantry"}},{"type":"Feature","geometry":{"type":"Point","coordinates":[121.01199,14.610357]},"properties":{"name":"Bukas Palad Community Pantry "}},{"type":"Feature","geometry":{"type":"Point","coordinates":[120.971109,14.659795]},"properties":{"name":"Sanganda Community Pantry"}},{"type":"Feature","geometry":{"type":"Point","coordinates":[121.13252,14.190114]},"properties":{"name":"Barandal Community Pantry"}},{"type":"Feature","geometry":{"type":"Point","coordinates":[120.813206,13.927998]},"properties":{"name":"Likas N Calaqueño Community Pantry"}},{"type":"Feature","geometry":{"type":"Point","coordinates":[121.061783,14.672305]},"properties":{"name":"Tierra Pura Community Pantry"}},{"type":"Feature","geometry":{"type":"Point","coordinates":[121.137412,14.56675]},"properties":{"name":"20-1 Community Pantry"}},{"type":"Feature","geometry":{"type":"Point","coordinates":[125.207398,6.13588]},"properties":{"name":"One World Project Community Pantry"}},{"type":"Feature","geometry":{"type":"Point","coordinates":[121.095769,13.358112]},"properties":{"name":"KPBM's Community Pantry"}},{"type":"Feature","geometry":{"type":"Point","coordinates":[120.41408,15.920087]},"properties":{"name":"Love Your Neighbor Pantry"}},{"type":"Feature","geometry":{"type":"Point","coordinates":[121.130818,14.570141]},"properties":{"name":"Bang Cafe Community Pantry"}},{"type":"Feature","geometry":{"type":"Point","coordinates":[121.049288,14.581795]},"properties":{"name":"Highway Hills Community Pantry"}},{"type":"Feature","geometry":{"type":"Point","coordinates":[120.581891,16.427028]},"properties":{"name":"Pinsao Community Pantry"}},{"type":"Feature","geometry":{"type":"Point","coordinates":[121.020867,14.653729]},"properties":{"name":"Road B Community Pantry"}},{"type":"Feature","geometry":{"type":"Point","coordinates":[121.179895,13.411188]},"properties":{"name":"HATID COMMUNITY PANTRY"}},{"type":"Feature","geometry":{"type":"Point","coordinates":[121.00395,14.613715]},"properties":{"name":"BARANGAY 537 COMMUNITY PANTRY"}},{"type":"Feature","geometry":{"type":"Point","coordinates":[121.008399,14.573968]},"properties":{"name":"San Andres - Sta. Ana Community Pantry"}},{"type":"Feature","geometry":{"type":"Point","coordinates":[121.343023,14.122291]},"properties":{"name":"Paws and Community Pantry"}},{"type":"Feature","geometry":{"type":"Point","coordinates":[125.623925,7.087149]},"properties":{"name":"Paglaum Community Pantry"}},{"type":"Feature","geometry":{"type":"Point","coordinates":[120.968944,14.396557]},"properties":{"name":"Bacoor Communtiy Pantry"}},{"type":"Feature","geometry":{"type":"Point","coordinates":[121.057426,14.567575]},"properties":{"name":"Kapitolyo Community Pantry"}},{"type":"Feature","geometry":{"type":"Point","coordinates":[120.58954,15.148048]},"properties":{"name":"Crossing Community Pantry"}},{"type":"Feature","geometry":{"type":"Point","coordinates":[121.001704,14.602167]},"properties":{"name":"BRGY  424 ZONE 43 Community Pantry"}},{"type":"Feature","geometry":{"type":"Point","coordinates":[121.284733,14.497958]},"properties":{"name":"Tanay Community Pantry"}},{"type":"Feature","geometry":{"type":"Point","coordinates":[121.050936,13.900193]},"properties":{"name":"B Laqui Community Pantry"}},{"type":"Feature","geometry":{"type":"Point","coordinates":[121.096019,14.629262]},"properties":{"name":"Bayanihan ng Kabataan San Roque Marikina Community Pantry (I Mendoza Community Pantry)"}},{"type":"Feature","geometry":{"type":"Point","coordinates":[121.16898,14.583055]},"properties":{"name":"Antipolo Community Pantry"}},{"type":"Feature","geometry":{"type":"Point","coordinates":[121.218384,14.046457]},"properties":{"name":"San Ildefonso Barangay Pantry"}},{"type":"Feature","geometry":{"type":"Point","coordinates":[121.124859,14.539284]},"properties":{"name":"Damayan Community Pantry"}},{"type":"Feature","geometry":{"type":"Point","coordinates":[121.012452,14.732456]},"properties":{"name":"Llano Community Pantry"}},{"type":"Feature","geometry":{"type":"Point","coordinates":[121.131389,14.569623]},"properties":{"name":"Pantry ni Bro"}},{"type":"Feature","geometry":{"type":"Point","coordinates":[121.18735,13.366664]},"properties":{"name":"BRGY. SAPUL COMMUNITY PANTRY "}},{"type":"Feature","geometry":{"type":"Point","coordinates":[120.317508,16.605685]},"properties":{"name":"Carr Brake Community Pantry"}},{"type":"Feature","geometry":{"type":"Point","coordinates":[120.948693,14.313853]},"properties":{"name":"Tirona Avenue Face Mask Station"}},{"type":"Feature","geometry":{"type":"Point","coordinates":[121.0007,14.548848]},"properties":{"name":"Sta. Clara Community Pantry"}},{"type":"Feature","geometry":{"type":"Point","coordinates":[120.867046,14.800209]},"properties":{"name":"Libo Community Pantry"}},{"type":"Feature","geometry":{"type":"Point","coordinates":[123.185801,13.622702]},"properties":{"name":"Tabang Komunidad - Dinaga"}},{"type":"Feature","geometry":{"type":"Point","coordinates":[120.810996,14.858627]},"properties":{"name":"Kenyos Community Pantry Malolos"}},{"type":"Feature","geometry":{"type":"Point","coordinates":[121.009869,14.6798]},"properties":{"name":"Caloocan Community Pantry (Brgy. 163)"}},{"type":"Feature","geometry":{"type":"Point","coordinates":[119.979017,16.155648]},"properties":{"name":"Hundred Islands Community Pantry"}},{"type":"Feature","geometry":{"type":"Point","coordinates":[121.432307,15.667284]},"properties":{"name":"Diteki Alta Tribal Hall Community Pantry"}},{"type":"Feature","geometry":{"type":"Point","coordinates":[121.516531,12.591699]},"properties":{"name":"Libre Ga?...Libre! Community Pantry"}},{"type":"Feature","geometry":{"type":"Point","coordinates":[123.733796,13.138555]},"properties":{"name":"Legazpi Community Pantry by SICA"}},{"type":"Feature","geometry":{"type":"Point","coordinates":[121.069384,14.622917]},"properties":{"name":"Marilag Community Pantry"}},{"type":"Feature","geometry":{"type":"Point","coordinates":[121.083878,14.26718]},"properties":{"name":"Pulong Sta. Cruz Community Pantry"}},{"type":"Feature","geometry":{"type":"Point","coordinates":[121.035768,14.631879]},"properties":{"name":"Sct. Fuentebella Community Pantry"}},{"type":"Feature","geometry":{"type":"Point","coordinates":[121.109737,14.537123]},"properties":{"name":"Arenda Extension Community Pantry"}},{"type":"Feature","geometry":{"type":"Point","coordinates":[121.080419,14.537486]},"properties":{"name":"Palingon Tipas Taguig po Community Pantry"}},{"type":"Feature","geometry":{"type":"Point","coordinates":[121.097979,14.595813]},"properties":{"name":"Rice-UP Pasig NAPICO Community Pantry"}},{"type":"Feature","geometry":{"type":"Point","coordinates":[121.005017,14.549836]},"properties":{"name":"Dolores Community Pantry"}},{"type":"Feature","geometry":{"type":"Point","coordinates":[122.541087,10.774504]},"properties":{"name":"Padayon Pavia Community Pantry"}},{"type":"Feature","geometry":{"type":"Point","coordinates":[121.072514,14.658579]},"properties":{"name":"UP Campus Community Pantry and Pharmacy"}},{"type":"Feature","geometry":{"type":"Point","coordinates":[125.132059,8.156238]},"properties":{"name":"Malaybalay Community Pantry (Pangaseengan ta Malaybalay)"}},{"type":"Feature","geometry":{"type":"Point","coordinates":[121.059398,14.757464]},"properties":{"name":"K.M.C.I.Y.O. Community Pantry"}},{"type":"Feature","geometry":{"type":"Point","coordinates":[121.363965,14.234875]},"properties":{"name":"Give out love community pantry "}},{"type":"Feature","geometry":{"type":"Point","coordinates":[120.963485,14.67506]},"properties":{"name":"Yanga St Community Pantry"}},{"type":"Feature","geometry":{"type":"Point","coordinates":[121.149301,14.240238]},"properties":{"name":"Mamatid Community Pantry"}},{"type":"Feature","geometry":{"type":"Point","coordinates":[121.062939,14.708905]},"properties":{"name":"North Fairview Community Pantry"}},{"type":"Feature","geometry":{"type":"Point","coordinates":[121.107144,14.186478]},"properties":{"name":"Pacific/Palm Hill Community Pantry - Brgy. Palo Alto"}},{"type":"Feature","geometry":{"type":"Point","coordinates":[121.049594,14.664274]},"properties":{"name":"Las Villas Community Pantry"}},{"type":"Feature","geometry":{"type":"Point","coordinates":[120.906637,14.40652]},"properties":{"name":"Lancaster Residences Community Pantry"}},{"type":"Feature","geometry":{"type":"Point","coordinates":[121.008003,14.459323]},"properties":{"name":"BF Northwest Community Pantry"}},{"type":"Feature","geometry":{"type":"Point","coordinates":[121.099409,14.602527]},"properties":{"name":"PH2C3 KVHAI Community pantry"}},{"type":"Feature","geometry":{"type":"Point","coordinates":[121.01664,14.575281]},"properties":{"name":"Padayon Pilipinas Community Pantry"}},{"type":"Feature","geometry":{"type":"Point","coordinates":[121.077903,14.578488]},"properties":{"name":"Kantopeeps - Ugong Pasig Community Pantry"}},{"type":"Feature","geometry":{"type":"Point","coordinates":[121.057482,14.615331]},"properties":{"name":"SOCORRO COMMUNITY PANTRY"}},{"type":"Feature","geometry":{"type":"Point","coordinates":[121.509401,12.594423]},"properties":{"name":"Clarendonians' Initiative"}},{"type":"Feature","geometry":{"type":"Point","coordinates":[122.92432,14.135267]},"properties":{"name":"Barangay Poblacion Community Pantry"}},{"type":"Feature","geometry":{"type":"Point","coordinates":[120.565289,15.118036]},"properties":{"name":"PABALAN COMMUNITY PANTRY"}},{"type":"Feature","geometry":{"type":"Point","coordinates":[121.014694,14.575017]},"properties":{"name":"Tejeros Community Pantry"}},{"type":"Feature","geometry":{"type":"Point","coordinates":[121.036938,14.510723]},"properties":{"name":"Tup compound Community Pantry "}},{"type":"Feature","geometry":{"type":"Point","coordinates":[120.940505,14.319811]},"properties":{"name":"San Jose Community Pantry"}},{"type":"Feature","geometry":{"type":"Point","coordinates":[121.066111,14.697145]},"properties":{"name":"Omega Ave. Community Pantry"}},{"type":"Feature","geometry":{"type":"Point","coordinates":[121.031342,14.566114]},"properties":{"name":"Sampiro Community Pantry"}},{"type":"Feature","geometry":{"type":"Point","coordinates":[121.038983,14.767503]},"properties":{"name":"Camarin Community Pantry"}},{"type":"Feature","geometry":{"type":"Point","coordinates":[120.681835,15.060873]},"properties":{"name":"Brgy. Del Carmen Community Pantry"}},{"type":"Feature","geometry":{"type":"Point","coordinates":[121.022932,14.741376]},"properties":{"name":"Mother of the Redeemer Parish Community Pantry"}},{"type":"Feature","geometry":{"type":"Point","coordinates":[120.975266,14.659627]},"properties":{"name":"University Hills Community Pantry"}},{"type":"Feature","geometry":{"type":"Point","coordinates":[120.935003,14.41833]},"properties":{"name":"Bayan Luma 3 Imus Community Pantry"}},{"type":"Feature","geometry":{"type":"Point","coordinates":[121.031761,14.629069]},"properties":{"name":"Roces Community Pantry"}},{"type":"Feature","geometry":{"type":"Point","coordinates":[120.942125,14.676117]},"properties":{"name":"HULONG DUHAT COMMUNITY PANTRY"}},{"type":"Feature","geometry":{"type":"Point","coordinates":[121.067985,14.729343]},"properties":{"name":"Lagro Elementary School Community Pantry "}},{"type":"Feature","geometry":{"type":"Point","coordinates":[121.043293,14.586583]},"properties":{"name":"Mandaluyong Community Pantry"}},{"type":"Feature","geometry":{"type":"Point","coordinates":[123.367555,13.45292]},"properties":{"name":"BAAO BAYANIHAN PROJECT"}},{"type":"Feature","geometry":{"type":"Point","coordinates":[125.619561,7.077628]},"properties":{"name":"Sobrecarey Community Pantry"}},{"type":"Feature","geometry":{"type":"Point","coordinates":[121.118791,14.65369]},"properties":{"name":"Pantry ni Gab - St. Gabriel of Our Lady of Sorrows Parish Community Pantry"}},{"type":"Feature","geometry":{"type":"Point","coordinates":[121.164565,13.377022]},"properties":{"name":"CALAPAN PNP COMMUNITY PANTRY"}},{"type":"Feature","geometry":{"type":"Point","coordinates":[118.742522,9.740909]},"properties":{"name":"Kusina Palaweño Community Pantry"}},{"type":"Feature","geometry":{"type":"Point","coordinates":[120.995446,14.628087]},"properties":{"name":"Salvacion Community Pantry"}},{"type":"Feature","geometry":{"type":"Point","coordinates":[121.064049,14.645489]},"properties":{"name":"KRUS NA LIGAS Community Pantry"}},{"type":"Feature","geometry":{"type":"Point","coordinates":[121.069251,14.675397]},"properties":{"name":"Luzon Community Pantry"}},{"type":"Feature","geometry":{"type":"Point","coordinates":[120.908635,14.40761]},"properties":{"name":"Carnatin LR Community Pantry"}},{"type":"Feature","geometry":{"type":"Point","coordinates":[121.049492,14.640354]},"properties":{"name":"Matapang St Weekend Community Pantry"}},{"type":"Feature","geometry":{"type":"Point","coordinates":[121.002277,14.586223]},"properties":{"name":"Pandacan United Methodist Church Community Pantry "}},{"type":"Feature","geometry":{"type":"Point","coordinates":[120.966119,14.94629]},"properties":{"name":"Niugan Community Pantry"}},{"type":"Feature","geometry":{"type":"Point","coordinates":[120.306929,14.858378]},"properties":{"name":"KDP Community Pantry"}},{"type":"Feature","geometry":{"type":"Point","coordinates":[123.19955,13.627904]},"properties":{"name":"Villa Caceres Hotel Community Pantry"}},{"type":"Feature","geometry":{"type":"Point","coordinates":[121.067661,14.750046]},"properties":{"name":"Capitol Community Pantry"}},{"type":"Feature","geometry":{"type":"Point","coordinates":[120.99322,14.618267]},"properties":{"name":"Craig St. Community Pantry"}},{"type":"Feature","geometry":{"type":"Point","coordinates":[123.365626,13.453674]},"properties":{"name":"Baao Community Pantry"}},{"type":"Feature","geometry":{"type":"Point","coordinates":[120.644614,15.177518]},"properties":{"name":"Good Shepherd Parish Community Pantry"}},{"type":"Feature","geometry":{"type":"Point","coordinates":[121.102597,14.544629]},"properties":{"name":"Nagpayong High School - PASIGUEÑO COMMUNITY PANTRY"}},{"type":"Feature","geometry":{"type":"Point","coordinates":[121.043432,14.66627]},"properties":{"name":"Visayas Avenue Community Pantry"}},{"type":"Feature","geometry":{"type":"Point","coordinates":[121.003112,14.556347]},"properties":{"name":"Palanan (Scandic Palace) Community Pantry"}},{"type":"Feature","geometry":{"type":"Point","coordinates":[121.526647,13.964314]},"properties":{"name":"Sariaya Community Pantry"}},{"type":"Feature","geometry":{"type":"Point","coordinates":[125.801656,7.448564]},"properties":{"name":"MPIES Community Pantry"}},{"type":"Feature","geometry":{"type":"Point","coordinates":[121.053664,14.45912]},"properties":{"name":" Sucat Community Pantry"}},{"type":"Feature","geometry":{"type":"Point","coordinates":[121.030225,14.4526]},"properties":{"name":"MAKIBAHAGI (BF) COMMUNITY PANTRY"}},{"type":"Feature","geometry":{"type":"Point","coordinates":[121.178904,13.410418]},"properties":{"name":"ALS COMMUNITY ASSISTANCE PANTRY"}},{"type":"Feature","geometry":{"type":"Point","coordinates":[120.915287,14.434433]},"properties":{"name":"Pag-asa 2 Community Pantry"}},{"type":"Feature","geometry":{"type":"Point","coordinates":[121.072769,14.705822]},"properties":{"name":"East Fairview Community Pantry"}},{"type":"Feature","geometry":{"type":"Point","coordinates":[120.593001,16.420817]},"properties":{"name":"Magsaysay Community Pantry"}},{"type":"Feature","geometry":{"type":"Point","coordinates":[123.679839,13.456816]},"properties":{"name":"Tiwi Community Pantry"}},{"type":"Feature","geometry":{"type":"Point","coordinates":[120.572725,15.227826]},"properties":{"name":"Community Pantry by Hercrizel"}},{"type":"Feature","geometry":{"type":"Point","coordinates":[125.680997,7.304533]},"properties":{"name":"Panabo CES Community Pantry"}},{"type":"Feature","geometry":{"type":"Point","coordinates":[121.068411,14.646009]},"properties":{"name":"Pook Aguinaldo Community Pantry"}},{"type":"Feature","geometry":{"type":"Point","coordinates":[121.11737,14.578355]},"properties":{"name":"Cainta 1 Community Pantry"}},{"type":"Feature","geometry":{"type":"Point","coordinates":[120.992464,14.656809]},"properties":{"name":"Sta.Philomena Community Pantry"}},{"type":"Feature","geometry":{"type":"Point","coordinates":[121.051015,14.562134]},"properties":{"name":"Kalayaan-Makati Community Pantry and Paw-ntry"}},{"type":"Feature","geometry":{"type":"Point","coordinates":[120.94313,13.803291]},"properties":{"name":"San Diego Community Pantry"}},{"type":"Feature","geometry":{"type":"Point","coordinates":[121.140259,14.717051]},"properties":{"name":"Crossnote/ B3&4 Community Pantry"}},{"type":"Feature","geometry":{"type":"Point","coordinates":[123.899925,10.312769]},"properties":{"name":"Children's Community Pantry"}},{"type":"Feature","geometry":{"type":"Point","coordinates":[120.992292,14.613238]},"properties":{"name":"Piy Margal Community Pantry"}},{"type":"Feature","geometry":{"type":"Point","coordinates":[121.00764,14.554727]},"properties":{"name":"San Isidro Community Pantry"}},{"type":"Feature","geometry":{"type":"Point","coordinates":[120.541282,14.679843]},"properties":{"name":"Balanga Plaza Community Pantry"}},{"type":"Feature","geometry":{"type":"Point","coordinates":[125.583083,7.090689]},"properties":{"name":"Kakusa Community Pantry"}},{"type":"Feature","geometry":{"type":"Point","coordinates":[120.984769,14.413966]},"properties":{"name":"MOLINO 6 COMMUNITY PANTRY "}},{"type":"Feature","geometry":{"type":"Point","coordinates":[121.030669,14.714884]},"properties":{"name":"ANAK COMMUNITY PANTRY"}},{"type":"Feature","geometry":{"type":"Point","coordinates":[120.627945,15.181066]},"properties":{"name":"SAPANG MAISAC COMMUNITY PANTRY"}},{"type":"Feature","geometry":{"type":"Point","coordinates":[123.365216,13.354055]},"properties":{"name":"BATO COMMUNITY PANTRY"}},{"type":"Feature","geometry":{"type":"Point","coordinates":[120.892974,14.477279]},"properties":{"name":"Cavite City Community Pantry"}},{"type":"Feature","geometry":{"type":"Point","coordinates":[120.991662,14.645688]},"properties":{"name":"BANAL COMMUNITY PANTRY"}},{"type":"Feature","geometry":{"type":"Point","coordinates":[120.998008,14.606286]},"properties":{"name":"Kariton ng Masa Community Pantry"}},{"type":"Feature","geometry":{"type":"Point","coordinates":[121.044159,14.662898]},"properties":{"name":"Visayas Ave-Road 8 Community Pantry"}},{"type":"Feature","geometry":{"type":"Point","coordinates":[121.046414,14.742613]},"properties":{"name":"BALAI COMMUNITY PANTRY"}},{"type":"Feature","geometry":{"type":"Point","coordinates":[120.825842,15.090447]},"properties":{"name":"One Dabarkad's Community Pantry"}},{"type":"Feature","geometry":{"type":"Point","coordinates":[121.047641,14.631906]},"properties":{"name":"Kamias Rd. Community Pantry"}},{"type":"Feature","geometry":{"type":"Point","coordinates":[121.059165,14.646369]},"properties":{"name":"Maginhawa Community Pantry"}},{"type":"Feature","geometry":{"type":"Point","coordinates":[120.998937,14.572002]},"properties":{"name":"Taal/Lemery San Andres Bukid Community Pantry 1"}},{"type":"Feature","geometry":{"type":"Point","coordinates":[121.026289,14.624202]},"properties":{"name":"PETA Theater Center"}},{"type":"Feature","geometry":{"type":"Point","coordinates":[120.950254,13.904902]},"properties":{"name":"All for One, One for All Community Pantry"}},{"type":"Feature","geometry":{"type":"Point","coordinates":[121.069768,14.555829]},"properties":{"name":"FRIENDSHIP COMMUNITY PANTRY"}},{"type":"Feature","geometry":{"type":"Point","coordinates":[121.185555,13.406613]},"properties":{"name":"D'Dreamer Pantry"}},{"type":"Feature","geometry":{"type":"Point","coordinates":[121.708675,17.598837]},"properties":{"name":"Community Pantry by Rotaract Club of Tuguegarao"}},{"type":"Feature","geometry":{"type":"Point","coordinates":[120.948873,14.654958]},"properties":{"name":"San Ildefonso Community Pantry"}},{"type":"Feature","geometry":{"type":"Point","coordinates":[121.066094,14.639888]},"properties":{"name":"Brgy. Botocan Community Pantry"}},{"type":"Feature","geometry":{"type":"Point","coordinates":[121.048103,14.373939]},"properties":{"name":"St. Peregrine Muntinlupa Community Pantry"}},{"type":"Feature","geometry":{"type":"Point","coordinates":[122.952893,10.597684]},"properties":{"name":"deca homes community pantry"}},{"type":"Feature","geometry":{"type":"Point","coordinates":[121.008648,13.780268]},"properties":{"name":"Silangan Aplaya Bauan Community Pantry (Batangas)"}},{"type":"Feature","geometry":{"type":"Point","coordinates":[121.136527,14.731701]},"properties":{"name":"Bodegang Bayan ng San Jose"}},{"type":"Feature","geometry":{"type":"Point","coordinates":[123.40795,13.419336]},"properties":{"name":"Barangay San Miguel Community Pantry"}},{"type":"Feature","geometry":{"type":"Point","coordinates":[121.056443,14.784532]},"properties":{"name":"Baranggay Gaya-Gaya community pantry"}},{"type":"Feature","geometry":{"type":"Point","coordinates":[120.906968,14.81687]},"properties":{"name":"Balagtas Community Pantry"}},{"type":"Feature","geometry":{"type":"Point","coordinates":[121.082956,14.61409]},"properties":{"name":"1610 COMMUNITY PANTRY"}},{"type":"Feature","geometry":{"type":"Point","coordinates":[121.038649,14.399343]},"properties":{"name":"BLOCK 8 Soldiers Hills, Muntinlupa Pantry"}},{"type":"Feature","geometry":{"type":"Point","coordinates":[122.009238,10.747999]},"properties":{"name":"Brgy. Egaña Community Pantry"}},{"type":"Feature","geometry":{"type":"Point","coordinates":[120.409757,17.639713]},"properties":{"name":"Sto. Domingo Community Pantry"}},{"type":"Feature","geometry":{"type":"Point","coordinates":[120.602756,15.497067]},"properties":{"name":"Tarlac City Community Pantry"}},{"type":"Feature","geometry":{"type":"Point","coordinates":[121.619765,17.116767]},"properties":{"name":"OUR LADY OF LA SALETTE COMMUNITY PANTRY ON THE GO"}},{"type":"Feature","geometry":{"type":"Point","coordinates":[121.077065,14.768567]},"properties":{"name":"Malaria, North Caloocan City"}},{"type":"Feature","geometry":{"type":"Point","coordinates":[123.890025,10.32465]},"properties":{"name":"PAY IT FORWARD COMMUNITY PANTRY CEBU"}},{"type":"Feature","geometry":{"type":"Point","coordinates":[121.039644,14.564294]},"properties":{"name":"GV Community Pantry"}},{"type":"Feature","geometry":{"type":"Point","coordinates":[121.01525,14.621044]},"properties":{"name":"Tatalon Community Pantry (Victory Ave.)"}},{"type":"Feature","geometry":{"type":"Point","coordinates":[121.002082,14.548002]},"properties":{"name":"PASAY CITY COMMUNITY PANTRY - ARNAIZ AVE."}},{"type":"Feature","geometry":{"type":"Point","coordinates":[121.095396,14.591568]},"properties":{"name":"HAPAG-ASA"}},{"type":"Feature","geometry":{"type":"Point","coordinates":[125.478287,7.145291]},"properties":{"name":"Los Amigos Community Pantry"}},{"type":"Feature","geometry":{"type":"Point","coordinates":[122.25883,13.883131]},"properties":{"name":"Lopez Community Pantry "}},{"type":"Feature","geometry":{"type":"Point","coordinates":[121.093209,14.320598]},"properties":{"name":"Platero Community Pantry"}},{"type":"Feature","geometry":{"type":"Point","coordinates":[121.3428,14.0466]},"properties":{"name":"San Pablo City Community Pantry #1"}},{"type":"Feature","geometry":{"type":"Point","coordinates":[121.042318,14.755895]},"properties":{"name":"Zabarte Community Pantry"}},